[
  {
    "id": "youbike-500101001",
    "source": "YouBike2.0臺北市公共自行車即時資訊",
    "type": "youbike",
    "district": "大安區",
    "name": "捷運科技大樓站",
    "address": "復興南路二段235號前",
    "lat": 25.02605,
    "lng": 121.5436,
    "capacity": 28,
    "availableRentBikes": 0,
    "availableReturnBikes": 28,
    "pressure": 1,
    "updatedAt": "2026-05-21 16:30:53"
  },
  {
    "id": "youbike-500101002",
    "source": "YouBike2.0臺北市公共自行車即時資訊",
    "type": "youbike",
    "district": "大安區",
    "name": "復興南路二段273號前",
    "address": "復興南路二段273號西側",
    "lat": 25.02565,
    "lng": 121.54357,
    "capacity": 21,
    "availableRentBikes": 3,
    "availableReturnBikes": 18,
    "pressure": 0.817,
    "updatedAt": "2026-05-21 16:30:53"
  },
  {
    "id": "youbike-500101003",
    "source": "YouBike2.0臺北市公共自行車即時資訊",
    "type": "youbike",
    "district": "大安區",
    "name": "國北教大實小東側門",
    "address": "和平東路二段96巷7號",
    "lat": 25.02429,
    "lng": 121.54124,
    "capacity": 28,
    "availableRentBikes": 0,
    "availableReturnBikes": 28,
    "pressure": 1,
    "updatedAt": "2026-05-21 16:30:53"
  },
  {
    "id": "youbike-500101004",
    "source": "YouBike2.0臺北市公共自行車即時資訊",
    "type": "youbike",
    "district": "大安區",
    "name": "和平公園東側",
    "address": "和平東路二段118巷33號",
    "lat": 25.02351,
    "lng": 121.54282,
    "capacity": 11,
    "availableRentBikes": 6,
    "availableReturnBikes": 5,
    "pressure": 0.353,
    "updatedAt": "2026-05-21 16:30:53"
  },
  {
    "id": "youbike-500101005",
    "source": "YouBike2.0臺北市公共自行車即時資訊",
    "type": "youbike",
    "district": "大安區",
    "name": "辛亥復興路口西北側",
    "address": "復興南路二段368號",
    "lat": 25.02153,
    "lng": 121.54299,
    "capacity": 16,
    "availableRentBikes": 3,
    "availableReturnBikes": 13,
    "pressure": 0.76,
    "updatedAt": "2026-05-21 16:30:53"
  },
  {
    "id": "youbike-500101006",
    "source": "YouBike2.0臺北市公共自行車即時資訊",
    "type": "youbike",
    "district": "大安區",
    "name": "復興南路二段280號前",
    "address": "復興南路二段280號",
    "lat": 25.02429,
    "lng": 121.54328,
    "capacity": 27,
    "availableRentBikes": 2,
    "availableReturnBikes": 25,
    "pressure": 0.905,
    "updatedAt": "2026-05-21 16:30:53"
  },
  {
    "id": "youbike-500101007",
    "source": "YouBike2.0臺北市公共自行車即時資訊",
    "type": "youbike",
    "district": "大安區",
    "name": "復興南路二段340巷口",
    "address": "復興南路二段342號",
    "lat": 25.02253,
    "lng": 121.54326,
    "capacity": 11,
    "availableRentBikes": 1,
    "availableReturnBikes": 10,
    "pressure": 0.884,
    "updatedAt": "2026-05-21 16:30:53"
  },
  {
    "id": "youbike-500101008",
    "source": "YouBike2.0臺北市公共自行車即時資訊",
    "type": "youbike",
    "district": "大安區",
    "name": "新生南路三段52號前",
    "address": "新生南路三段52號",
    "lat": 25.02112,
    "lng": 121.53407,
    "capacity": 17,
    "availableRentBikes": 0,
    "availableReturnBikes": 17,
    "pressure": 1,
    "updatedAt": "2026-05-21 16:30:53"
  },
  {
    "id": "youbike-500101009",
    "source": "YouBike2.0臺北市公共自行車即時資訊",
    "type": "youbike",
    "district": "大安區",
    "name": "新生南路三段66號前",
    "address": "新生南路三段66號東側",
    "lat": 25.01976,
    "lng": 121.53384,
    "capacity": 16,
    "availableRentBikes": 3,
    "availableReturnBikes": 13,
    "pressure": 0.76,
    "updatedAt": "2026-05-21 16:30:53"
  },
  {
    "id": "youbike-500101010",
    "source": "YouBike2.0臺北市公共自行車即時資訊",
    "type": "youbike",
    "district": "大安區",
    "name": "新生南路三段82號前",
    "address": "新生南路三段82號",
    "lat": 25.01894,
    "lng": 121.53361,
    "capacity": 20,
    "availableRentBikes": 1,
    "availableReturnBikes": 18,
    "pressure": 0.922,
    "updatedAt": "2026-05-21 16:30:53"
  },
  {
    "id": "youbike-500101012",
    "source": "YouBike2.0臺北市公共自行車即時資訊",
    "type": "youbike",
    "district": "大安區",
    "name": "辛亥路一段30號前",
    "address": "辛亥路一段30號",
    "lat": 25.01986,
    "lng": 121.52982,
    "capacity": 8,
    "availableRentBikes": 5,
    "availableReturnBikes": 3,
    "pressure": 0.34,
    "updatedAt": "2026-05-21 16:30:53"
  },
  {
    "id": "youbike-500101013",
    "source": "YouBike2.0臺北市公共自行車即時資訊",
    "type": "youbike",
    "district": "大安區",
    "name": "和平復興路口西北側",
    "address": "復興南路二段236號",
    "lat": 25.02543,
    "lng": 121.54332,
    "capacity": 9,
    "availableRentBikes": 9,
    "availableReturnBikes": 0,
    "pressure": 0.28,
    "updatedAt": "2026-05-21 16:30:53"
  },
  {
    "id": "youbike-500101014",
    "source": "YouBike2.0臺北市公共自行車即時資訊",
    "type": "youbike",
    "district": "大安區",
    "name": "羅斯福路三段311號前",
    "address": "羅斯福路三段311號",
    "lat": 25.01717,
    "lng": 121.53202,
    "capacity": 11,
    "availableRentBikes": 7,
    "availableReturnBikes": 4,
    "pressure": 0.338,
    "updatedAt": "2026-05-21 16:30:53"
  },
  {
    "id": "youbike-500101015",
    "source": "YouBike2.0臺北市公共自行車即時資訊",
    "type": "youbike",
    "district": "大安區",
    "name": "大安運動中心停車場",
    "address": "敦南街76巷28號",
    "lat": 25.02089,
    "lng": 121.54697,
    "capacity": 19,
    "availableRentBikes": 14,
    "availableReturnBikes": 5,
    "pressure": 0.322,
    "updatedAt": "2026-05-21 16:30:53"
  },
  {
    "id": "youbike-500101016",
    "source": "YouBike2.0臺北市公共自行車即時資訊",
    "type": "youbike",
    "district": "大安區",
    "name": "羅斯福路三段245號前",
    "address": "羅斯福路三段245號",
    "lat": 25.01927,
    "lng": 121.52989,
    "capacity": 8,
    "availableRentBikes": 5,
    "availableReturnBikes": 3,
    "pressure": 0.34,
    "updatedAt": "2026-05-21 16:30:53"
  },
  {
    "id": "youbike-500101018",
    "source": "YouBike2.0臺北市公共自行車即時資訊",
    "type": "youbike",
    "district": "大安區",
    "name": "溫州公園",
    "address": "羅斯福路三段283巷11號",
    "lat": 25.01895,
    "lng": 121.53156,
    "capacity": 11,
    "availableRentBikes": 4,
    "availableReturnBikes": 7,
    "pressure": 0.535,
    "updatedAt": "2026-05-21 16:30:53"
  },
  {
    "id": "youbike-500101019",
    "source": "YouBike2.0臺北市公共自行車即時資訊",
    "type": "youbike",
    "district": "大安區",
    "name": "和平臥龍街口",
    "address": "臥龍街1號",
    "lat": 25.024461,
    "lng": 121.546705,
    "capacity": 24,
    "availableRentBikes": 6,
    "availableReturnBikes": 18,
    "pressure": 0.68,
    "updatedAt": "2026-05-21 16:30:53"
  },
  {
    "id": "youbike-500101021",
    "source": "YouBike2.0臺北市公共自行車即時資訊",
    "type": "youbike",
    "district": "大安區",
    "name": "銘傳國小側門",
    "address": "羅斯福路四段21號旁天橋下",
    "lat": 25.01385,
    "lng": 121.53549,
    "capacity": 7,
    "availableRentBikes": 3,
    "availableReturnBikes": 3,
    "pressure": 0.411,
    "updatedAt": "2026-05-21 16:30:53"
  },
  {
    "id": "youbike-500101022",
    "source": "YouBike2.0臺北市公共自行車即時資訊",
    "type": "youbike",
    "district": "大安區",
    "name": "捷運公館站(2號出口)",
    "address": "捷運公館站(2號出口)外側",
    "lat": 25.01491,
    "lng": 121.53438,
    "capacity": 99,
    "availableRentBikes": 17,
    "availableReturnBikes": 81,
    "pressure": 0.777,
    "updatedAt": "2026-05-21 16:30:53"
  },
  {
    "id": "youbike-500101023",
    "source": "YouBike2.0臺北市公共自行車即時資訊",
    "type": "youbike",
    "district": "大安區",
    "name": "第二學生活動中心",
    "address": "羅斯福路四段107號(西南側)",
    "lat": 25.01244,
    "lng": 121.53661,
    "capacity": 87,
    "availableRentBikes": 4,
    "availableReturnBikes": 83,
    "pressure": 0.941,
    "updatedAt": "2026-05-21 16:30:53"
  },
  {
    "id": "youbike-500101024",
    "source": "YouBike2.0臺北市公共自行車即時資訊",
    "type": "youbike",
    "district": "大安區",
    "name": "臺灣科技大學正門",
    "address": "基隆路四段43號(臺灣科技大學正門旁小側門靠田徑場)",
    "lat": 25.01451,
    "lng": 121.54142,
    "capacity": 50,
    "availableRentBikes": 25,
    "availableReturnBikes": 25,
    "pressure": 0.36,
    "updatedAt": "2026-05-21 16:30:53"
  },
  {
    "id": "youbike-500101025",
    "source": "YouBike2.0臺北市公共自行車即時資訊",
    "type": "youbike",
    "district": "大安區",
    "name": "臺灣科技大學側門",
    "address": "基隆路四段73巷與基隆路口",
    "lat": 25.01295,
    "lng": 121.53973,
    "capacity": 97,
    "availableRentBikes": 23,
    "availableReturnBikes": 74,
    "pressure": 0.696,
    "updatedAt": "2026-05-21 16:30:53"
  },
  {
    "id": "youbike-500101026",
    "source": "YouBike2.0臺北市公共自行車即時資訊",
    "type": "youbike",
    "district": "大安區",
    "name": "公館公園",
    "address": "羅斯福路四段113巷基隆路四段41巷口",
    "lat": 25.01137,
    "lng": 121.54062,
    "capacity": 30,
    "availableRentBikes": 18,
    "availableReturnBikes": 12,
    "pressure": 0.344,
    "updatedAt": "2026-05-21 16:30:53"
  },
  {
    "id": "youbike-500101027",
    "source": "YouBike2.0臺北市公共自行車即時資訊",
    "type": "youbike",
    "district": "大安區",
    "name": "臺灣科技大學後門",
    "address": "基隆路四段41巷68弄臺科帆船大樓旁",
    "lat": 25.01182,
    "lng": 121.54165,
    "capacity": 39,
    "availableRentBikes": 2,
    "availableReturnBikes": 36,
    "pressure": 0.927,
    "updatedAt": "2026-05-21 16:30:53"
  },
  {
    "id": "youbike-500101028",
    "source": "YouBike2.0臺北市公共自行車即時資訊",
    "type": "youbike",
    "district": "大安區",
    "name": "臺大醫學院附設癌醫中心",
    "address": "基隆路三段155巷57號西側",
    "lat": 25.01426,
    "lng": 121.54382,
    "capacity": 20,
    "availableRentBikes": 13,
    "availableReturnBikes": 7,
    "pressure": 0.336,
    "updatedAt": "2026-05-21 16:30:53"
  },
  {
    "id": "youbike-500101029",
    "source": "YouBike2.0臺北市公共自行車即時資訊",
    "type": "youbike",
    "district": "大安區",
    "name": "臺大環研大樓",
    "address": "芳蘭路/基隆路三段155巷口",
    "lat": 25.01234,
    "lng": 121.54503,
    "capacity": 41,
    "availableRentBikes": 20,
    "availableReturnBikes": 21,
    "pressure": 0.376,
    "updatedAt": "2026-05-21 16:30:53"
  },
  {
    "id": "youbike-500101030",
    "source": "YouBike2.0臺北市公共自行車即時資訊",
    "type": "youbike",
    "district": "大安區",
    "name": "臺大永齡生醫工程館",
    "address": "芳蘭路51號西北側",
    "lat": 25.0136,
    "lng": 121.54656,
    "capacity": 34,
    "availableRentBikes": 15,
    "availableReturnBikes": 19,
    "pressure": 0.435,
    "updatedAt": "2026-05-21 16:30:53"
  },
  {
    "id": "youbike-500101031",
    "source": "YouBike2.0臺北市公共自行車即時資訊",
    "type": "youbike",
    "district": "大安區",
    "name": "臺大男七舍前",
    "address": "長興街/長興街80巷口西側",
    "lat": 25.01537,
    "lng": 121.54698,
    "capacity": 20,
    "availableRentBikes": 6,
    "availableReturnBikes": 14,
    "pressure": 0.616,
    "updatedAt": "2026-05-21 16:30:53"
  },
  {
    "id": "youbike-500101032",
    "source": "YouBike2.0臺北市公共自行車即時資訊",
    "type": "youbike",
    "district": "大安區",
    "name": "臺大男一舍前",
    "address": "長興街50號西北側",
    "lat": 25.01637,
    "lng": 121.54535,
    "capacity": 61,
    "availableRentBikes": 12,
    "availableReturnBikes": 49,
    "pressure": 0.748,
    "updatedAt": "2026-05-21 16:30:53"
  },
  {
    "id": "youbike-500101033",
    "source": "YouBike2.0臺北市公共自行車即時資訊",
    "type": "youbike",
    "district": "大安區",
    "name": "臺大男六舍前",
    "address": "大安區長興街31號",
    "lat": 25.01664,
    "lng": 121.5452,
    "capacity": 40,
    "availableRentBikes": 5,
    "availableReturnBikes": 35,
    "pressure": 0.84,
    "updatedAt": "2026-05-21 16:30:53"
  },
  {
    "id": "youbike-500101034",
    "source": "YouBike2.0臺北市公共自行車即時資訊",
    "type": "youbike",
    "district": "大安區",
    "name": "臺大動物醫院前",
    "address": "基隆路三段155巷/基隆路四段口",
    "lat": 25.01576,
    "lng": 121.54291,
    "capacity": 18,
    "availableRentBikes": 9,
    "availableReturnBikes": 7,
    "pressure": 0.391,
    "updatedAt": "2026-05-21 16:30:53"
  },
  {
    "id": "youbike-500101035",
    "source": "YouBike2.0臺北市公共自行車即時資訊",
    "type": "youbike",
    "district": "大安區",
    "name": "臺大土木研究大樓前",
    "address": "辛亥路三段188號",
    "lat": 25.01787,
    "lng": 121.5476,
    "capacity": 24,
    "availableRentBikes": 24,
    "availableReturnBikes": 0,
    "pressure": 0.28,
    "updatedAt": "2026-05-21 16:30:53"
  },
  {
    "id": "youbike-500101036",
    "source": "YouBike2.0臺北市公共自行車即時資訊",
    "type": "youbike",
    "district": "大安區",
    "name": "臺大萬才館前",
    "address": "臺大萬才館北側",
    "lat": 25.02032,
    "lng": 121.54497,
    "capacity": 20,
    "availableRentBikes": 1,
    "availableReturnBikes": 19,
    "pressure": 0.936,
    "updatedAt": "2026-05-21 16:30:53"
  },
  {
    "id": "youbike-500101037",
    "source": "YouBike2.0臺北市公共自行車即時資訊",
    "type": "youbike",
    "district": "大安區",
    "name": "臺大國青大樓宿舍前",
    "address": "辛亥路三段30號西北側",
    "lat": 25.02076,
    "lng": 121.54432,
    "capacity": 20,
    "availableRentBikes": 3,
    "availableReturnBikes": 16,
    "pressure": 0.794,
    "updatedAt": "2026-05-21 16:30:53"
  },
  {
    "id": "youbike-500101038",
    "source": "YouBike2.0臺北市公共自行車即時資訊",
    "type": "youbike",
    "district": "大安區",
    "name": "臺大社科院圖書館前",
    "address": "辛亥路與復興南路口西南側",
    "lat": 25.02101,
    "lng": 121.54284,
    "capacity": 27,
    "availableRentBikes": 2,
    "availableReturnBikes": 25,
    "pressure": 0.905,
    "updatedAt": "2026-05-21 16:30:53"
  },
  {
    "id": "youbike-500101039",
    "source": "YouBike2.0臺北市公共自行車即時資訊",
    "type": "youbike",
    "district": "大安區",
    "name": "臺大法人語言訓練中心前",
    "address": "臺大法人語言訓練中心北側",
    "lat": 25.02104,
    "lng": 121.54081,
    "capacity": 28,
    "availableRentBikes": 22,
    "availableReturnBikes": 6,
    "pressure": 0.314,
    "updatedAt": "2026-05-21 16:30:53"
  },
  {
    "id": "youbike-500101040",
    "source": "YouBike2.0臺北市公共自行車即時資訊",
    "type": "youbike",
    "district": "大安區",
    "name": "臺大綜合體育館停車場前",
    "address": "臺大綜合體育館北側",
    "lat": 25.0222,
    "lng": 121.53626,
    "capacity": 25,
    "availableRentBikes": 3,
    "availableReturnBikes": 22,
    "pressure": 0.846,
    "updatedAt": "2026-05-21 16:30:53"
  },
  {
    "id": "youbike-500101041",
    "source": "YouBike2.0臺北市公共自行車即時資訊",
    "type": "youbike",
    "district": "大安區",
    "name": "辛亥新生路口東南側",
    "address": "辛亥新生路口東南側",
    "lat": 25.02218,
    "lng": 121.53474,
    "capacity": 50,
    "availableRentBikes": 2,
    "availableReturnBikes": 48,
    "pressure": 0.949,
    "updatedAt": "2026-05-21 16:30:53"
  },
  {
    "id": "youbike-500101042",
    "source": "YouBike2.0臺北市公共自行車即時資訊",
    "type": "youbike",
    "district": "大安區",
    "name": "基隆長興路口東側",
    "address": "基隆長興路口東側",
    "lat": 25.01727,
    "lng": 121.54471,
    "capacity": 15,
    "availableRentBikes": 4,
    "availableReturnBikes": 11,
    "pressure": 0.659,
    "updatedAt": "2026-05-21 16:30:53"
  },
  {
    "id": "youbike-500101091",
    "source": "YouBike2.0臺北市公共自行車即時資訊",
    "type": "youbike",
    "district": "大安區",
    "name": "國北教大側門南側",
    "address": "敦南街51號",
    "lat": 25.022864,
    "lng": 121.546622,
    "capacity": 34,
    "availableRentBikes": 11,
    "availableReturnBikes": 23,
    "pressure": 0.586,
    "updatedAt": "2026-05-21 16:30:53"
  },
  {
    "id": "youbike-500101092",
    "source": "YouBike2.0臺北市公共自行車即時資訊",
    "type": "youbike",
    "district": "大安區",
    "name": "和平實小東北側",
    "address": "敦南街73號",
    "lat": 25.021641,
    "lng": 121.54704,
    "capacity": 25,
    "availableRentBikes": 18,
    "availableReturnBikes": 6,
    "pressure": 0.336,
    "updatedAt": "2026-05-21 16:30:53"
  },
  {
    "id": "youbike-500101093",
    "source": "YouBike2.0臺北市公共自行車即時資訊",
    "type": "youbike",
    "district": "大安區",
    "name": "大安區健康服務中心",
    "address": "辛亥路三段15號",
    "lat": 25.021469,
    "lng": 121.544069,
    "capacity": 23,
    "availableRentBikes": 1,
    "availableReturnBikes": 22,
    "pressure": 0.944,
    "updatedAt": "2026-05-21 16:30:53"
  },
  {
    "id": "youbike-500101094",
    "source": "YouBike2.0臺北市公共自行車即時資訊",
    "type": "youbike",
    "district": "大安區",
    "name": "辛亥泰順街口",
    "address": "辛亥泰順街口東南側",
    "lat": 25.02193,
    "lng": 121.53165,
    "capacity": 20,
    "availableRentBikes": 8,
    "availableReturnBikes": 12,
    "pressure": 0.488,
    "updatedAt": "2026-05-21 16:30:53"
  },
  {
    "id": "youbike-500101095",
    "source": "YouBike2.0臺北市公共自行車即時資訊",
    "type": "youbike",
    "district": "大安區",
    "name": "臺北市芳和實驗中學",
    "address": "臥龍街170號(前)",
    "lat": 25.0189,
    "lng": 121.55013,
    "capacity": 76,
    "availableRentBikes": 1,
    "availableReturnBikes": 75,
    "pressure": 0.983,
    "updatedAt": "2026-05-21 16:30:53"
  },
  {
    "id": "youbike-500101097",
    "source": "YouBike2.0臺北市公共自行車即時資訊",
    "type": "youbike",
    "district": "大安區",
    "name": "臥龍樂業街口",
    "address": "臥龍街234-2號",
    "lat": 25.01856,
    "lng": 121.55558,
    "capacity": 64,
    "availableRentBikes": 2,
    "availableReturnBikes": 61,
    "pressure": 0.956,
    "updatedAt": "2026-05-21 16:30:53"
  },
  {
    "id": "youbike-500101098",
    "source": "YouBike2.0臺北市公共自行車即時資訊",
    "type": "youbike",
    "district": "大安區",
    "name": "臥龍公園",
    "address": "辛亥路三段223號西側",
    "lat": 25.01623,
    "lng": 121.55037,
    "capacity": 25,
    "availableRentBikes": 5,
    "availableReturnBikes": 20,
    "pressure": 0.744,
    "updatedAt": "2026-05-21 16:30:53"
  },
  {
    "id": "youbike-500101099",
    "source": "YouBike2.0臺北市公共自行車即時資訊",
    "type": "youbike",
    "district": "大安區",
    "name": "嘉興公園",
    "address": "樂業街101巷3號西北側",
    "lat": 25.021,
    "lng": 121.55211,
    "capacity": 44,
    "availableRentBikes": 7,
    "availableReturnBikes": 37,
    "pressure": 0.796,
    "updatedAt": "2026-05-21 16:30:53"
  },
  {
    "id": "youbike-500101100",
    "source": "YouBike2.0臺北市公共自行車即時資訊",
    "type": "youbike",
    "district": "大安區",
    "name": "捷運麟光站(2號出口)",
    "address": "和平東路三段420號東北側",
    "lat": 25.0181,
    "lng": 121.55929,
    "capacity": 69,
    "availableRentBikes": 1,
    "availableReturnBikes": 68,
    "pressure": 0.981,
    "updatedAt": "2026-05-21 16:30:53"
  },
  {
    "id": "youbike-500101101",
    "source": "YouBike2.0臺北市公共自行車即時資訊",
    "type": "youbike",
    "district": "大安區",
    "name": "捷運六張犁站",
    "address": "和平東路三段410號",
    "lat": 25.02397,
    "lng": 121.55266,
    "capacity": 64,
    "availableRentBikes": 5,
    "availableReturnBikes": 59,
    "pressure": 0.9,
    "updatedAt": "2026-05-21 16:30:53"
  },
  {
    "id": "youbike-500101102",
    "source": "YouBike2.0臺北市公共自行車即時資訊",
    "type": "youbike",
    "district": "大安區",
    "name": "喬治工商",
    "address": "基隆路二段166號",
    "lat": 25.02705,
    "lng": 121.55551,
    "capacity": 22,
    "availableRentBikes": 5,
    "availableReturnBikes": 17,
    "pressure": 0.709,
    "updatedAt": "2026-05-21 16:30:53"
  },
  {
    "id": "youbike-500101103",
    "source": "YouBike2.0臺北市公共自行車即時資訊",
    "type": "youbike",
    "district": "大安區",
    "name": "法治公園",
    "address": "通化街189號西側",
    "lat": 25.02694,
    "lng": 121.55325,
    "capacity": 41,
    "availableRentBikes": 7,
    "availableReturnBikes": 34,
    "pressure": 0.781,
    "updatedAt": "2026-05-21 16:30:53"
  },
  {
    "id": "youbike-500101104",
    "source": "YouBike2.0臺北市公共自行車即時資訊",
    "type": "youbike",
    "district": "大安區",
    "name": "捷運臺電大樓站(2號出口)",
    "address": "辛亥路一段/羅斯福路三段口北側(辛亥路側)",
    "lat": 25.02021,
    "lng": 121.52942,
    "capacity": 18,
    "availableRentBikes": 4,
    "availableReturnBikes": 14,
    "pressure": 0.716,
    "updatedAt": "2026-05-21 16:30:53"
  },
  {
    "id": "youbike-500101105",
    "source": "YouBike2.0臺北市公共自行車即時資訊",
    "type": "youbike",
    "district": "大安區",
    "name": "和平金山路口",
    "address": "和平東路一段/金山南路二段西南側",
    "lat": 25.02669,
    "lng": 121.52529,
    "capacity": 58,
    "availableRentBikes": 2,
    "availableReturnBikes": 56,
    "pressure": 0.956,
    "updatedAt": "2026-05-21 16:30:53"
  },
  {
    "id": "youbike-500101107",
    "source": "YouBike2.0臺北市公共自行車即時資訊",
    "type": "youbike",
    "district": "大安區",
    "name": "和平龍泉街口",
    "address": "和平東路一段/龍泉街口西南側",
    "lat": 25.02638,
    "lng": 121.52971,
    "capacity": 34,
    "availableRentBikes": 2,
    "availableReturnBikes": 32,
    "pressure": 0.925,
    "updatedAt": "2026-05-21 16:30:53"
  },
  {
    "id": "youbike-500101108",
    "source": "YouBike2.0臺北市公共自行車即時資訊",
    "type": "youbike",
    "district": "大安區",
    "name": "和平泰順街口",
    "address": "和平東路一段/泰順街口東南側",
    "lat": 25.02621,
    "lng": 121.53171,
    "capacity": 19,
    "availableRentBikes": 5,
    "availableReturnBikes": 13,
    "pressure": 0.648,
    "updatedAt": "2026-05-21 16:30:53"
  },
  {
    "id": "youbike-500101109",
    "source": "YouBike2.0臺北市公共自行車即時資訊",
    "type": "youbike",
    "district": "大安區",
    "name": "臺灣師範大學(圖書館)",
    "address": "和平東路一段129號前",
    "lat": 25.0266,
    "lng": 121.52973,
    "capacity": 40,
    "availableRentBikes": 3,
    "availableReturnBikes": 35,
    "pressure": 0.89,
    "updatedAt": "2026-05-21 16:30:53"
  },
  {
    "id": "youbike-500101110",
    "source": "YouBike2.0臺北市公共自行車即時資訊",
    "type": "youbike",
    "district": "大安區",
    "name": "捷運古亭站(6號出口)",
    "address": "羅斯福路二段41號前",
    "lat": 25.0276,
    "lng": 121.52217,
    "capacity": 60,
    "availableRentBikes": 17,
    "availableReturnBikes": 43,
    "pressure": 0.637,
    "updatedAt": "2026-05-21 16:30:53"
  },
  {
    "id": "youbike-500101113",
    "source": "YouBike2.0臺北市公共自行車即時資訊",
    "type": "youbike",
    "district": "大安區",
    "name": "臺北市立圖書館(總館)",
    "address": "建國南路二段/建國南路二段151巷(橋下空間)",
    "lat": 25.02895,
    "lng": 121.5379,
    "capacity": 67,
    "availableRentBikes": 24,
    "availableReturnBikes": 43,
    "pressure": 0.541,
    "updatedAt": "2026-05-21 16:30:53"
  },
  {
    "id": "youbike-500101114",
    "source": "YouBike2.0臺北市公共自行車即時資訊",
    "type": "youbike",
    "district": "大安區",
    "name": "新生和平路口東北側",
    "address": "新生南路二段與和平東路二段口東北側",
    "lat": 25.02657,
    "lng": 121.53515,
    "capacity": 51,
    "availableRentBikes": 3,
    "availableReturnBikes": 48,
    "pressure": 0.925,
    "updatedAt": "2026-05-21 16:30:53"
  },
  {
    "id": "youbike-500101115",
    "source": "YouBike2.0臺北市公共自行車即時資訊",
    "type": "youbike",
    "district": "大安區",
    "name": "建國和平路口西北側",
    "address": "建國南路二段與和平東路二段口西北側",
    "lat": 25.02606,
    "lng": 121.53738,
    "capacity": 50,
    "availableRentBikes": 8,
    "availableReturnBikes": 42,
    "pressure": 0.795,
    "updatedAt": "2026-05-21 16:30:53"
  },
  {
    "id": "youbike-500101116",
    "source": "YouBike2.0臺北市公共自行車即時資訊",
    "type": "youbike",
    "district": "大安區",
    "name": "金華公園",
    "address": "金華街249號對面",
    "lat": 25.02984,
    "lng": 121.53107,
    "capacity": 44,
    "availableRentBikes": 8,
    "availableReturnBikes": 35,
    "pressure": 0.761,
    "updatedAt": "2026-05-21 16:30:53"
  },
  {
    "id": "youbike-500101118",
    "source": "YouBike2.0臺北市公共自行車即時資訊",
    "type": "youbike",
    "district": "大安區",
    "name": "金甌女中",
    "address": "信義路二段與杭州南路二段東南側",
    "lat": 25.03519,
    "lng": 121.5245,
    "capacity": 15,
    "availableRentBikes": 1,
    "availableReturnBikes": 14,
    "pressure": 0.915,
    "updatedAt": "2026-05-21 16:30:53"
  },
  {
    "id": "youbike-500101119",
    "source": "YouBike2.0臺北市公共自行車即時資訊",
    "type": "youbike",
    "district": "大安區",
    "name": "金杭公園",
    "address": "愛國東路21巷與杭州南路二段25巷口東南側",
    "lat": 25.03325,
    "lng": 121.52436,
    "capacity": 20,
    "availableRentBikes": 1,
    "availableReturnBikes": 19,
    "pressure": 0.936,
    "updatedAt": "2026-05-21 16:30:53"
  },
  {
    "id": "youbike-500101120",
    "source": "YouBike2.0臺北市公共自行車即時資訊",
    "type": "youbike",
    "district": "大安區",
    "name": "愛國金山路口",
    "address": "愛國東路與杭州南路二段口西南側",
    "lat": 25.03164,
    "lng": 121.52661,
    "capacity": 57,
    "availableRentBikes": 8,
    "availableReturnBikes": 49,
    "pressure": 0.82,
    "updatedAt": "2026-05-21 16:30:53"
  },
  {
    "id": "youbike-500101122",
    "source": "YouBike2.0臺北市公共自行車即時資訊",
    "type": "youbike",
    "district": "大安區",
    "name": "敦化南路二段293巷口南側",
    "address": "敦化南路二段293巷口南側",
    "lat": 25.0237,
    "lng": 121.54899,
    "capacity": 14,
    "availableRentBikes": 2,
    "availableReturnBikes": 12,
    "pressure": 0.817,
    "updatedAt": "2026-05-21 16:30:53"
  },
  {
    "id": "youbike-500101123",
    "source": "YouBike2.0臺北市公共自行車即時資訊",
    "type": "youbike",
    "district": "大安區",
    "name": "敦化基隆路口",
    "address": "敦化南路二段218號",
    "lat": 25.02215,
    "lng": 121.54839,
    "capacity": 38,
    "availableRentBikes": 28,
    "availableReturnBikes": 10,
    "pressure": 0.322,
    "updatedAt": "2026-05-21 16:30:53"
  },
  {
    "id": "youbike-500101124",
    "source": "YouBike2.0臺北市公共自行車即時資訊",
    "type": "youbike",
    "district": "大安區",
    "name": "安和路二段181巷口",
    "address": "安和路二段185號",
    "lat": 25.02721,
    "lng": 121.54988,
    "capacity": 29,
    "availableRentBikes": 14,
    "availableReturnBikes": 15,
    "pressure": 0.382,
    "updatedAt": "2026-05-21 16:30:53"
  },
  {
    "id": "youbike-500101125",
    "source": "YouBike2.0臺北市公共自行車即時資訊",
    "type": "youbike",
    "district": "大安區",
    "name": "臨江街夜市(通化街101巷口)",
    "address": "通化街111號",
    "lat": 25.02952,
    "lng": 121.55406,
    "capacity": 30,
    "availableRentBikes": 10,
    "availableReturnBikes": 20,
    "pressure": 0.573,
    "updatedAt": "2026-05-21 16:30:53"
  },
  {
    "id": "youbike-500101126",
    "source": "YouBike2.0臺北市公共自行車即時資訊",
    "type": "youbike",
    "district": "大安區",
    "name": "臨江街夜市(基隆路)",
    "address": "基隆路二段108號",
    "lat": 25.02931,
    "lng": 121.55721,
    "capacity": 29,
    "availableRentBikes": 10,
    "availableReturnBikes": 18,
    "pressure": 0.549,
    "updatedAt": "2026-05-21 16:30:53"
  },
  {
    "id": "youbike-500101127",
    "source": "YouBike2.0臺北市公共自行車即時資訊",
    "type": "youbike",
    "district": "大安區",
    "name": "台北科技大學億光大樓",
    "address": "忠孝東路三段81號",
    "lat": 25.04177,
    "lng": 121.53833,
    "capacity": 59,
    "availableRentBikes": 18,
    "availableReturnBikes": 41,
    "pressure": 0.609,
    "updatedAt": "2026-05-21 16:30:53"
  },
  {
    "id": "youbike-500101128",
    "source": "YouBike2.0臺北市公共自行車即時資訊",
    "type": "youbike",
    "district": "大安區",
    "name": "新生南路一段119巷口",
    "address": "新生南路一段113號",
    "lat": 25.04003,
    "lng": 121.53299,
    "capacity": 64,
    "availableRentBikes": 6,
    "availableReturnBikes": 58,
    "pressure": 0.88,
    "updatedAt": "2026-05-21 16:30:53"
  },
  {
    "id": "youbike-500101129",
    "source": "YouBike2.0臺北市公共自行車即時資訊",
    "type": "youbike",
    "district": "大安區",
    "name": "幸安國小(仁愛路)",
    "address": "仁愛路三段22號",
    "lat": 25.03753,
    "lng": 121.53523,
    "capacity": 28,
    "availableRentBikes": 3,
    "availableReturnBikes": 25,
    "pressure": 0.863,
    "updatedAt": "2026-05-21 16:30:53"
  },
  {
    "id": "youbike-500101130",
    "source": "YouBike2.0臺北市公共自行車即時資訊",
    "type": "youbike",
    "district": "大安區",
    "name": "民榮公園",
    "address": "建國南路一段304巷45號南側",
    "lat": 25.03534,
    "lng": 121.5354,
    "capacity": 31,
    "availableRentBikes": 16,
    "availableReturnBikes": 15,
    "pressure": 0.357,
    "updatedAt": "2026-05-21 16:30:53"
  },
  {
    "id": "youbike-500101131",
    "source": "YouBike2.0臺北市公共自行車即時資訊",
    "type": "youbike",
    "district": "大安區",
    "name": "復興南路1段340巷口",
    "address": "復興南路一段信義路三段147巷45弄口",
    "lat": 25.03701,
    "lng": 121.54348,
    "capacity": 50,
    "availableRentBikes": 4,
    "availableReturnBikes": 45,
    "pressure": 0.892,
    "updatedAt": "2026-05-21 16:30:53"
  },
  {
    "id": "youbike-500101132",
    "source": "YouBike2.0臺北市公共自行車即時資訊",
    "type": "youbike",
    "district": "大安區",
    "name": "建國濟南路口",
    "address": "建國南路一段/濟南路三段口(東南側)",
    "lat": 25.03935,
    "lng": 121.53828,
    "capacity": 54,
    "availableRentBikes": 5,
    "availableReturnBikes": 49,
    "pressure": 0.881,
    "updatedAt": "2026-05-21 16:30:53"
  },
  {
    "id": "youbike-500101133",
    "source": "YouBike2.0臺北市公共自行車即時資訊",
    "type": "youbike",
    "district": "大安區",
    "name": "捷運忠孝復興站(2號出口)",
    "address": "復興南路一段/仁愛路三段123巷13弄(西北側)",
    "lat": 25.04035,
    "lng": 121.5436,
    "capacity": 29,
    "availableRentBikes": 1,
    "availableReturnBikes": 28,
    "pressure": 0.956,
    "updatedAt": "2026-05-21 16:30:53"
  },
  {
    "id": "youbike-500101134",
    "source": "YouBike2.0臺北市公共自行車即時資訊",
    "type": "youbike",
    "district": "大安區",
    "name": "捷運大安站(4號出口)",
    "address": "信義路4段6號(前)",
    "lat": 25.0332,
    "lng": 121.5439,
    "capacity": 16,
    "availableRentBikes": 1,
    "availableReturnBikes": 15,
    "pressure": 0.92,
    "updatedAt": "2026-05-21 16:30:53"
  },
  {
    "id": "youbike-500101135",
    "source": "YouBike2.0臺北市公共自行車即時資訊",
    "type": "youbike",
    "district": "大安區",
    "name": "捷運大安站(2號出口)",
    "address": "信義路3段143號(前)",
    "lat": 25.03358,
    "lng": 121.54141,
    "capacity": 60,
    "availableRentBikes": 1,
    "availableReturnBikes": 59,
    "pressure": 0.979,
    "updatedAt": "2026-05-21 16:30:53"
  },
  {
    "id": "youbike-500101136",
    "source": "YouBike2.0臺北市公共自行車即時資訊",
    "type": "youbike",
    "district": "大安區",
    "name": "信義大安路口(信維大樓)",
    "address": "信義路四段74號(前)",
    "lat": 25.03317,
    "lng": 121.54639,
    "capacity": 18,
    "availableRentBikes": 1,
    "availableReturnBikes": 17,
    "pressure": 0.929,
    "updatedAt": "2026-05-21 16:30:53"
  },
  {
    "id": "youbike-500101137",
    "source": "YouBike2.0臺北市公共自行車即時資訊",
    "type": "youbike",
    "district": "大安區",
    "name": "龍門廣場",
    "address": "敦化南路一段與敦化南路一段236巷口",
    "lat": 25.04092,
    "lng": 121.54825,
    "capacity": 70,
    "availableRentBikes": 16,
    "availableReturnBikes": 53,
    "pressure": 0.703,
    "updatedAt": "2026-05-21 16:30:53"
  },
  {
    "id": "youbike-500101138",
    "source": "YouBike2.0臺北市公共自行車即時資訊",
    "type": "youbike",
    "district": "大安區",
    "name": "仁愛安和路口",
    "address": "仁愛路四段258號前",
    "lat": 25.03754,
    "lng": 121.55285,
    "capacity": 33,
    "availableRentBikes": 2,
    "availableReturnBikes": 31,
    "pressure": 0.922,
    "updatedAt": "2026-05-21 16:30:53"
  },
  {
    "id": "youbike-500101139",
    "source": "YouBike2.0臺北市公共自行車即時資訊",
    "type": "youbike",
    "district": "大安區",
    "name": "信義敦化路口",
    "address": "信義路四段155號前",
    "lat": 25.03333,
    "lng": 121.54977,
    "capacity": 52,
    "availableRentBikes": 4,
    "availableReturnBikes": 48,
    "pressure": 0.902,
    "updatedAt": "2026-05-21 16:30:53"
  },
  {
    "id": "youbike-500101140",
    "source": "YouBike2.0臺北市公共自行車即時資訊",
    "type": "youbike",
    "district": "大安區",
    "name": "仁愛國中",
    "address": "安和路一段75號(對面)",
    "lat": 25.03706,
    "lng": 121.55166,
    "capacity": 25,
    "availableRentBikes": 3,
    "availableReturnBikes": 22,
    "pressure": 0.846,
    "updatedAt": "2026-05-21 16:30:53"
  },
  {
    "id": "youbike-500101141",
    "source": "YouBike2.0臺北市公共自行車即時資訊",
    "type": "youbike",
    "district": "大安區",
    "name": "捷運信義安和站(2號出口)",
    "address": "信義路四段188號前",
    "lat": 25.03304,
    "lng": 121.55171,
    "capacity": 24,
    "availableRentBikes": 15,
    "availableReturnBikes": 9,
    "pressure": 0.34,
    "updatedAt": "2026-05-21 16:30:53"
  },
  {
    "id": "youbike-500101142",
    "source": "YouBike2.0臺北市公共自行車即時資訊",
    "type": "youbike",
    "district": "大安區",
    "name": "八德市場",
    "address": "市民大道三段170號",
    "lat": 25.04463,
    "lng": 121.53665,
    "capacity": 30,
    "availableRentBikes": 0,
    "availableReturnBikes": 30,
    "pressure": 1,
    "updatedAt": "2026-05-21 16:30:53"
  },
  {
    "id": "youbike-500101143",
    "source": "YouBike2.0臺北市公共自行車即時資訊",
    "type": "youbike",
    "district": "大安區",
    "name": "昌隆公園",
    "address": "市民大道三段206號西側",
    "lat": 25.04448,
    "lng": 121.53946,
    "capacity": 16,
    "availableRentBikes": 2,
    "availableReturnBikes": 14,
    "pressure": 0.84,
    "updatedAt": "2026-05-21 16:30:53"
  },
  {
    "id": "youbike-500101144",
    "source": "YouBike2.0臺北市公共自行車即時資訊",
    "type": "youbike",
    "district": "大安區",
    "name": "捷運大安森林公園站(2號出口)",
    "address": "捷運大安森林公園站(2號出口)西側",
    "lat": 25.03332,
    "lng": 121.53435,
    "capacity": 69,
    "availableRentBikes": 29,
    "availableReturnBikes": 39,
    "pressure": 0.458,
    "updatedAt": "2026-05-21 16:30:53"
  },
  {
    "id": "youbike-500101145",
    "source": "YouBike2.0臺北市公共自行車即時資訊",
    "type": "youbike",
    "district": "大安區",
    "name": "信義延吉街口",
    "address": "信義路四段353號",
    "lat": 25.03318,
    "lng": 121.55725,
    "capacity": 15,
    "availableRentBikes": 6,
    "availableReturnBikes": 9,
    "pressure": 0.488,
    "updatedAt": "2026-05-21 16:30:53"
  },
  {
    "id": "youbike-500101146",
    "source": "YouBike2.0臺北市公共自行車即時資訊",
    "type": "youbike",
    "district": "大安區",
    "name": "光信公園(光復南路456巷)",
    "address": "延吉街249號",
    "lat": 25.03513,
    "lng": 121.5561,
    "capacity": 25,
    "availableRentBikes": 8,
    "availableReturnBikes": 16,
    "pressure": 0.579,
    "updatedAt": "2026-05-21 16:30:53"
  },
  {
    "id": "youbike-500101147",
    "source": "YouBike2.0臺北市公共自行車即時資訊",
    "type": "youbike",
    "district": "大安區",
    "name": "僑安地下停車場(2號出口)東南側",
    "address": "光復南路290巷5號",
    "lat": 25.0391,
    "lng": 121.5569,
    "capacity": 28,
    "availableRentBikes": 20,
    "availableReturnBikes": 8,
    "pressure": 0.326,
    "updatedAt": "2026-05-21 16:30:53"
  },
  {
    "id": "youbike-500101148",
    "source": "YouBike2.0臺北市公共自行車即時資訊",
    "type": "youbike",
    "district": "大安區",
    "name": "建國南路一段279巷口",
    "address": "建國南路一段275號",
    "lat": 25.03635,
    "lng": 121.53833,
    "capacity": 62,
    "availableRentBikes": 13,
    "availableReturnBikes": 49,
    "pressure": 0.732,
    "updatedAt": "2026-05-21 16:30:53"
  },
  {
    "id": "youbike-500101149",
    "source": "YouBike2.0臺北市公共自行車即時資訊",
    "type": "youbike",
    "district": "大安區",
    "name": "捷運忠孝新生站(6號出口)",
    "address": "新生南路一段101號",
    "lat": 25.04091,
    "lng": 121.53295,
    "capacity": 35,
    "availableRentBikes": 7,
    "availableReturnBikes": 28,
    "pressure": 0.744,
    "updatedAt": "2026-05-21 16:30:53"
  },
  {
    "id": "youbike-500101150",
    "source": "YouBike2.0臺北市公共自行車即時資訊",
    "type": "youbike",
    "district": "大安區",
    "name": "捷運忠孝新生站(4號出口)",
    "address": "忠孝新生路口北側",
    "lat": 25.04239,
    "lng": 121.53324,
    "capacity": 46,
    "availableRentBikes": 7,
    "availableReturnBikes": 38,
    "pressure": 0.799,
    "updatedAt": "2026-05-21 16:30:53"
  },
  {
    "id": "youbike-500101151",
    "source": "YouBike2.0臺北市公共自行車即時資訊",
    "type": "youbike",
    "district": "大安區",
    "name": "大安高工",
    "address": "復興南路二段52號(前)",
    "lat": 25.03126,
    "lng": 121.54339,
    "capacity": 23,
    "availableRentBikes": 0,
    "availableReturnBikes": 23,
    "pressure": 1,
    "updatedAt": "2026-05-21 16:30:53"
  },
  {
    "id": "youbike-500101152",
    "source": "YouBike2.0臺北市公共自行車即時資訊",
    "type": "youbike",
    "district": "大安區",
    "name": "捷運忠孝新生站(3號出口)",
    "address": "忠孝東路三段與10巷口",
    "lat": 25.04189,
    "lng": 121.53376,
    "capacity": 43,
    "availableRentBikes": 12,
    "availableReturnBikes": 30,
    "pressure": 0.636,
    "updatedAt": "2026-05-21 16:30:53"
  },
  {
    "id": "youbike-500101153",
    "source": "YouBike2.0臺北市公共自行車即時資訊",
    "type": "youbike",
    "district": "大安區",
    "name": "瑠公公園",
    "address": "忠孝東路四段49巷4弄/大安路口",
    "lat": 25.04201,
    "lng": 121.54612,
    "capacity": 20,
    "availableRentBikes": 20,
    "availableReturnBikes": 0,
    "pressure": 0.28,
    "updatedAt": "2026-05-21 16:30:53"
  },
  {
    "id": "youbike-500101154",
    "source": "YouBike2.0臺北市公共自行車即時資訊",
    "type": "youbike",
    "district": "大安區",
    "name": "敦化市民路口",
    "address": "敦化南路1段158號(前)",
    "lat": 25.04405,
    "lng": 121.5486,
    "capacity": 23,
    "availableRentBikes": 10,
    "availableReturnBikes": 13,
    "pressure": 0.443,
    "updatedAt": "2026-05-21 16:30:53"
  },
  {
    "id": "youbike-500101155",
    "source": "YouBike2.0臺北市公共自行車即時資訊",
    "type": "youbike",
    "district": "大安區",
    "name": "捷運大安森林公園站(5號出口)",
    "address": "捷運大安森林公園站(5號出口)東側",
    "lat": 25.03336,
    "lng": 121.5364,
    "capacity": 15,
    "availableRentBikes": 11,
    "availableReturnBikes": 4,
    "pressure": 0.323,
    "updatedAt": "2026-05-21 16:30:53"
  },
  {
    "id": "youbike-500101156",
    "source": "YouBike2.0臺北市公共自行車即時資訊",
    "type": "youbike",
    "district": "大安區",
    "name": "信義建國路口",
    "address": "建國南路二段與信義路三段口西南側",
    "lat": 25.0328,
    "lng": 121.53746,
    "capacity": 52,
    "availableRentBikes": 25,
    "availableReturnBikes": 26,
    "pressure": 0.379,
    "updatedAt": "2026-05-21 16:30:53"
  },
  {
    "id": "youbike-500101157",
    "source": "YouBike2.0臺北市公共自行車即時資訊",
    "type": "youbike",
    "district": "大安區",
    "name": "東豐公園",
    "address": "東豐街24號(旁公園路側)",
    "lat": 25.03569,
    "lng": 121.5451,
    "capacity": 19,
    "availableRentBikes": 9,
    "availableReturnBikes": 10,
    "pressure": 0.394,
    "updatedAt": "2026-05-21 16:30:53"
  },
  {
    "id": "youbike-500101158",
    "source": "YouBike2.0臺北市公共自行車即時資訊",
    "type": "youbike",
    "district": "大安區",
    "name": "德安公園(四維路66巷)",
    "address": "四維路66巷6號北側",
    "lat": 25.03473,
    "lng": 121.54767,
    "capacity": 22,
    "availableRentBikes": 15,
    "availableReturnBikes": 7,
    "pressure": 0.331,
    "updatedAt": "2026-05-21 16:30:53"
  },
  {
    "id": "youbike-500101159",
    "source": "YouBike2.0臺北市公共自行車即時資訊",
    "type": "youbike",
    "district": "大安區",
    "name": "捷運忠孝復興站(5號出口)",
    "address": "復興南路一段135巷口",
    "lat": 25.04253,
    "lng": 121.54407,
    "capacity": 30,
    "availableRentBikes": 12,
    "availableReturnBikes": 18,
    "pressure": 0.488,
    "updatedAt": "2026-05-21 16:30:53"
  },
  {
    "id": "youbike-500101160",
    "source": "YouBike2.0臺北市公共自行車即時資訊",
    "type": "youbike",
    "district": "大安區",
    "name": "捷運忠孝敦化站(2號出口)",
    "address": "忠孝東路四段221號",
    "lat": 25.04153,
    "lng": 121.5524,
    "capacity": 17,
    "availableRentBikes": 13,
    "availableReturnBikes": 4,
    "pressure": 0.318,
    "updatedAt": "2026-05-21 16:30:53"
  },
  {
    "id": "youbike-500101161",
    "source": "YouBike2.0臺北市公共自行車即時資訊",
    "type": "youbike",
    "district": "大安區",
    "name": "捷運忠孝敦化站(7號出口)",
    "address": "忠孝東路四段143號",
    "lat": 25.04159,
    "lng": 121.54937,
    "capacity": 18,
    "availableRentBikes": 14,
    "availableReturnBikes": 4,
    "pressure": 0.316,
    "updatedAt": "2026-05-21 16:30:53"
  },
  {
    "id": "youbike-500101163",
    "source": "YouBike2.0臺北市公共自行車即時資訊",
    "type": "youbike",
    "district": "大安區",
    "name": "瑞安街208巷",
    "address": "瑞安街208巷39號對面",
    "lat": 25.02979,
    "lng": 121.54053,
    "capacity": 15,
    "availableRentBikes": 10,
    "availableReturnBikes": 5,
    "pressure": 0.333,
    "updatedAt": "2026-05-21 16:30:53"
  },
  {
    "id": "youbike-500101165",
    "source": "YouBike2.0臺北市公共自行車即時資訊",
    "type": "youbike",
    "district": "大安區",
    "name": "樂利路21巷口",
    "address": "樂利路25號",
    "lat": 25.0277,
    "lng": 121.55132,
    "capacity": 17,
    "availableRentBikes": 3,
    "availableReturnBikes": 14,
    "pressure": 0.774,
    "updatedAt": "2026-05-21 16:30:53"
  },
  {
    "id": "youbike-500101166",
    "source": "YouBike2.0臺北市公共自行車即時資訊",
    "type": "youbike",
    "district": "大安區",
    "name": "捷運科技大樓站(台北教育大學)",
    "address": "和平東路二段134號前",
    "lat": 25.02472,
    "lng": 121.54417,
    "capacity": 54,
    "availableRentBikes": 8,
    "availableReturnBikes": 46,
    "pressure": 0.81,
    "updatedAt": "2026-05-21 16:30:53"
  },
  {
    "id": "youbike-500101167",
    "source": "YouBike2.0臺北市公共自行車即時資訊",
    "type": "youbike",
    "district": "大安區",
    "name": "捷運國父紀念館站(2號出口)",
    "address": "忠孝東路四段/光復南路口(西南側)",
    "lat": 25.04122,
    "lng": 121.55745,
    "capacity": 62,
    "availableRentBikes": 5,
    "availableReturnBikes": 57,
    "pressure": 0.897,
    "updatedAt": "2026-05-21 16:30:53"
  },
  {
    "id": "youbike-500101168",
    "source": "YouBike2.0臺北市公共自行車即時資訊",
    "type": "youbike",
    "district": "大安區",
    "name": "仁愛醫院",
    "address": "仁愛路四段/大安路一段口(西南側)",
    "lat": 25.03756,
    "lng": 121.54587,
    "capacity": 36,
    "availableRentBikes": 3,
    "availableReturnBikes": 33,
    "pressure": 0.893,
    "updatedAt": "2026-05-21 16:30:53"
  },
  {
    "id": "youbike-500101169",
    "source": "YouBike2.0臺北市公共自行車即時資訊",
    "type": "youbike",
    "district": "大安區",
    "name": "捷運信義安和站(4號出口)",
    "address": "信義路四段252號前",
    "lat": 25.03305,
    "lng": 121.55378,
    "capacity": 49,
    "availableRentBikes": 1,
    "availableReturnBikes": 48,
    "pressure": 0.974,
    "updatedAt": "2026-05-21 16:30:53"
  },
  {
    "id": "youbike-500101170",
    "source": "YouBike2.0臺北市公共自行車即時資訊",
    "type": "youbike",
    "district": "大安區",
    "name": "成功國宅",
    "address": "和平東路三段1巷/四維路198巷口(西北側)",
    "lat": 25.02681,
    "lng": 121.54668,
    "capacity": 36,
    "availableRentBikes": 12,
    "availableReturnBikes": 23,
    "pressure": 0.566,
    "updatedAt": "2026-05-21 16:30:53"
  },
  {
    "id": "youbike-500101171",
    "source": "YouBike2.0臺北市公共自行車即時資訊",
    "type": "youbike",
    "district": "大安區",
    "name": "仁愛延吉街口",
    "address": "仁愛路四段376號前",
    "lat": 25.03748,
    "lng": 121.55564,
    "capacity": 33,
    "availableRentBikes": 7,
    "availableReturnBikes": 26,
    "pressure": 0.728,
    "updatedAt": "2026-05-21 16:30:53"
  },
  {
    "id": "youbike-500101172",
    "source": "YouBike2.0臺北市公共自行車即時資訊",
    "type": "youbike",
    "district": "大安區",
    "name": "捷運信義安和站(1號出口)",
    "address": "信義路四段225號前",
    "lat": 25.03331,
    "lng": 121.55265,
    "capacity": 49,
    "availableRentBikes": 26,
    "availableReturnBikes": 23,
    "pressure": 0.355,
    "updatedAt": "2026-05-21 16:30:53"
  },
  {
    "id": "youbike-500101173",
    "source": "YouBike2.0臺北市公共自行車即時資訊",
    "type": "youbike",
    "district": "大安區",
    "name": "敦化南路二段103巷口",
    "address": "敦化南路二段99號前",
    "lat": 25.0287,
    "lng": 121.54904,
    "capacity": 24,
    "availableRentBikes": 9,
    "availableReturnBikes": 9,
    "pressure": 0.45,
    "updatedAt": "2026-05-21 16:30:53"
  },
  {
    "id": "youbike-500101174",
    "source": "YouBike2.0臺北市公共自行車即時資訊",
    "type": "youbike",
    "district": "大安區",
    "name": "復興南路二段128巷口",
    "address": "復興南路二段142之1號前",
    "lat": 25.02861,
    "lng": 121.54336,
    "capacity": 31,
    "availableRentBikes": 4,
    "availableReturnBikes": 27,
    "pressure": 0.835,
    "updatedAt": "2026-05-21 16:30:53"
  },
  {
    "id": "youbike-500101175",
    "source": "YouBike2.0臺北市公共自行車即時資訊",
    "type": "youbike",
    "district": "大安區",
    "name": "和平東建國南路口",
    "address": "和平東路/建國南路口(北側)",
    "lat": 25.02575,
    "lng": 121.5377,
    "capacity": 17,
    "availableRentBikes": 2,
    "availableReturnBikes": 15,
    "pressure": 0.849,
    "updatedAt": "2026-05-21 16:30:53"
  },
  {
    "id": "youbike-500101176",
    "source": "YouBike2.0臺北市公共自行車即時資訊",
    "type": "youbike",
    "district": "大安區",
    "name": "芳蘭山莊",
    "address": "基隆路三段155巷148號",
    "lat": 25.01223,
    "lng": 121.54788,
    "capacity": 16,
    "availableRentBikes": 6,
    "availableReturnBikes": 10,
    "pressure": 0.52,
    "updatedAt": "2026-05-21 16:30:53"
  },
  {
    "id": "youbike-500101177",
    "source": "YouBike2.0臺北市公共自行車即時資訊",
    "type": "youbike",
    "district": "大安區",
    "name": "復興南路一段126巷口",
    "address": "復興南路一段126巷1號前",
    "lat": 25.04311,
    "lng": 121.54313,
    "capacity": 15,
    "availableRentBikes": 9,
    "availableReturnBikes": 6,
    "pressure": 0.344,
    "updatedAt": "2026-05-21 16:30:53"
  },
  {
    "id": "youbike-500101179",
    "source": "YouBike2.0臺北市公共自行車即時資訊",
    "type": "youbike",
    "district": "大安區",
    "name": "捷運東門站(5號出口)",
    "address": "信義路二段178號前",
    "lat": 25.03363,
    "lng": 121.52962,
    "capacity": 28,
    "availableRentBikes": 28,
    "availableReturnBikes": 0,
    "pressure": 0.28,
    "updatedAt": "2026-05-21 16:30:53"
  },
  {
    "id": "youbike-500101180",
    "source": "YouBike2.0臺北市公共自行車即時資訊",
    "type": "youbike",
    "district": "大安區",
    "name": "仁愛路四段48巷口",
    "address": "仁愛路四段48巷/東豐街(北側)",
    "lat": 25.03597,
    "lng": 121.54693,
    "capacity": 12,
    "availableRentBikes": 6,
    "availableReturnBikes": 6,
    "pressure": 0.36,
    "updatedAt": "2026-05-21 16:30:53"
  },
  {
    "id": "youbike-500101181",
    "source": "YouBike2.0臺北市公共自行車即時資訊",
    "type": "youbike",
    "district": "大安區",
    "name": "捷運公館站(3號出口)",
    "address": "捷運公館站(3號出口)西側",
    "lat": 25.01551,
    "lng": 121.53374,
    "capacity": 99,
    "availableRentBikes": 22,
    "availableReturnBikes": 77,
    "pressure": 0.716,
    "updatedAt": "2026-05-21 16:30:53"
  },
  {
    "id": "youbike-500101182",
    "source": "YouBike2.0臺北市公共自行車即時資訊",
    "type": "youbike",
    "district": "大安區",
    "name": "臺北科技大學(電機工程系)",
    "address": "忠孝東路三段100號對側",
    "lat": 25.04196,
    "lng": 121.53653,
    "capacity": 34,
    "availableRentBikes": 16,
    "availableReturnBikes": 18,
    "pressure": 0.398,
    "updatedAt": "2026-05-21 16:30:53"
  },
  {
    "id": "youbike-500101184",
    "source": "YouBike2.0臺北市公共自行車即時資訊",
    "type": "youbike",
    "district": "大安區",
    "name": "新生南路三段94巷口",
    "address": "新生南路三段94號前",
    "lat": 25.01744,
    "lng": 121.53334,
    "capacity": 15,
    "availableRentBikes": 7,
    "availableReturnBikes": 8,
    "pressure": 0.403,
    "updatedAt": "2026-05-21 16:30:53"
  },
  {
    "id": "youbike-500101185",
    "source": "YouBike2.0臺北市公共自行車即時資訊",
    "type": "youbike",
    "district": "大安區",
    "name": "辛亥新生路口西北側",
    "address": "辛亥路一段/新生南路三段(西北側)",
    "lat": 25.02267,
    "lng": 121.5341,
    "capacity": 40,
    "availableRentBikes": 3,
    "availableReturnBikes": 37,
    "pressure": 0.904,
    "updatedAt": "2026-05-21 16:30:53"
  },
  {
    "id": "youbike-500101186",
    "source": "YouBike2.0臺北市公共自行車即時資訊",
    "type": "youbike",
    "district": "大安區",
    "name": "捷運大安站(6號出口)",
    "address": "復興南路一段303號前",
    "lat": 25.03479,
    "lng": 121.54376,
    "capacity": 29,
    "availableRentBikes": 0,
    "availableReturnBikes": 29,
    "pressure": 1,
    "updatedAt": "2026-05-21 16:30:53"
  },
  {
    "id": "youbike-500101187",
    "source": "YouBike2.0臺北市公共自行車即時資訊",
    "type": "youbike",
    "district": "大安區",
    "name": "臥龍街195巷口",
    "address": "臥龍街/臥龍街195巷(南側)",
    "lat": 25.01783,
    "lng": 121.55224,
    "capacity": 14,
    "availableRentBikes": 2,
    "availableReturnBikes": 12,
    "pressure": 0.817,
    "updatedAt": "2026-05-21 16:30:53"
  },
  {
    "id": "youbike-500101188",
    "source": "YouBike2.0臺北市公共自行車即時資訊",
    "type": "youbike",
    "district": "大安區",
    "name": "辛亥路三段157巷口",
    "address": "辛亥路三段與辛亥路三段157巷口西北側",
    "lat": 25.01727,
    "lng": 121.54904,
    "capacity": 27,
    "availableRentBikes": 5,
    "availableReturnBikes": 22,
    "pressure": 0.763,
    "updatedAt": "2026-05-21 16:30:53"
  },
  {
    "id": "youbike-500101189",
    "source": "YouBike2.0臺北市公共自行車即時資訊",
    "type": "youbike",
    "district": "大安區",
    "name": "臥龍基隆路口",
    "address": "臥龍街與基隆路二段口東北側",
    "lat": 25.02039,
    "lng": 121.54853,
    "capacity": 25,
    "availableRentBikes": 0,
    "availableReturnBikes": 25,
    "pressure": 1,
    "updatedAt": "2026-05-21 16:30:53"
  },
  {
    "id": "youbike-500101190",
    "source": "YouBike2.0臺北市公共自行車即時資訊",
    "type": "youbike",
    "district": "大安區",
    "name": "敦親公園",
    "address": "和平東路二段96巷8之1號(前方)",
    "lat": 25.02347,
    "lng": 121.54108,
    "capacity": 26,
    "availableRentBikes": 5,
    "availableReturnBikes": 21,
    "pressure": 0.754,
    "updatedAt": "2026-05-21 16:30:53"
  },
  {
    "id": "youbike-500101191",
    "source": "YouBike2.0臺北市公共自行車即時資訊",
    "type": "youbike",
    "district": "大安區",
    "name": "大安運動中心",
    "address": "辛亥路三段55號前方人行道(大安運動中心)",
    "lat": 25.02054,
    "lng": 121.54561,
    "capacity": 33,
    "availableRentBikes": 0,
    "availableReturnBikes": 33,
    "pressure": 1,
    "updatedAt": "2026-05-21 16:30:53"
  },
  {
    "id": "youbike-500101192",
    "source": "YouBike2.0臺北市公共自行車即時資訊",
    "type": "youbike",
    "district": "大安區",
    "name": "和平敦化路口",
    "address": "和平東路三段 / 敦化南路二段口(東側)",
    "lat": 25.02444,
    "lng": 121.54908,
    "capacity": 36,
    "availableRentBikes": 19,
    "availableReturnBikes": 17,
    "pressure": 0.356,
    "updatedAt": "2026-05-21 16:30:53"
  },
  {
    "id": "youbike-500101193",
    "source": "YouBike2.0臺北市公共自行車即時資訊",
    "type": "youbike",
    "district": "大安區",
    "name": "基隆長興路口",
    "address": "基隆路/長興街(東南側)",
    "lat": 25.01705,
    "lng": 121.54435,
    "capacity": 51,
    "availableRentBikes": 5,
    "availableReturnBikes": 46,
    "pressure": 0.875,
    "updatedAt": "2026-05-21 16:30:53"
  },
  {
    "id": "youbike-500101194",
    "source": "YouBike2.0臺北市公共自行車即時資訊",
    "type": "youbike",
    "district": "大安區",
    "name": "仁愛路四段122巷口",
    "address": "仁愛路四段118號前",
    "lat": 25.03762,
    "lng": 121.55009,
    "capacity": 25,
    "availableRentBikes": 1,
    "availableReturnBikes": 24,
    "pressure": 0.949,
    "updatedAt": "2026-05-21 16:30:53"
  },
  {
    "id": "youbike-500101196",
    "source": "YouBike2.0臺北市公共自行車即時資訊",
    "type": "youbike",
    "district": "大安區",
    "name": "市民敦化路口",
    "address": "敦化南路一段111號前",
    "lat": 25.04464,
    "lng": 121.54944,
    "capacity": 32,
    "availableRentBikes": 1,
    "availableReturnBikes": 31,
    "pressure": 0.96,
    "updatedAt": "2026-05-21 16:30:53"
  },
  {
    "id": "youbike-500101197",
    "source": "YouBike2.0臺北市公共自行車即時資訊",
    "type": "youbike",
    "district": "大安區",
    "name": "忠孝東路四段49巷口",
    "address": "忠孝東路四段55號前",
    "lat": 25.04172,
    "lng": 121.54541,
    "capacity": 15,
    "availableRentBikes": 8,
    "availableReturnBikes": 7,
    "pressure": 0.355,
    "updatedAt": "2026-05-21 16:30:53"
  },
  {
    "id": "youbike-500101198",
    "source": "YouBike2.0臺北市公共自行車即時資訊",
    "type": "youbike",
    "district": "大安區",
    "name": "市民復興路口(東南側)",
    "address": "市民大道四段/復興路一段口(東南側)",
    "lat": 25.04472,
    "lng": 121.54401,
    "capacity": 26,
    "availableRentBikes": 12,
    "availableReturnBikes": 14,
    "pressure": 0.409,
    "updatedAt": "2026-05-21 16:30:53"
  },
  {
    "id": "youbike-500101199",
    "source": "YouBike2.0臺北市公共自行車即時資訊",
    "type": "youbike",
    "district": "大安區",
    "name": "和平新生路口西南側",
    "address": "新生南路三段2號前",
    "lat": 25.02604,
    "lng": 121.534,
    "capacity": 24,
    "availableRentBikes": 0,
    "availableReturnBikes": 24,
    "pressure": 1,
    "updatedAt": "2026-05-21 16:30:53"
  },
  {
    "id": "youbike-500101200",
    "source": "YouBike2.0臺北市公共自行車即時資訊",
    "type": "youbike",
    "district": "大安區",
    "name": "全安公園",
    "address": "安和路二段227巷16號對側",
    "lat": 25.02535,
    "lng": 121.55101,
    "capacity": 16,
    "availableRentBikes": 3,
    "availableReturnBikes": 13,
    "pressure": 0.76,
    "updatedAt": "2026-05-21 16:30:53"
  },
  {
    "id": "youbike-500101201",
    "source": "YouBike2.0臺北市公共自行車即時資訊",
    "type": "youbike",
    "district": "大安區",
    "name": "信義路三段134巷口",
    "address": "信義路三段/信義路三段134巷口",
    "lat": 25.03333,
    "lng": 121.53968,
    "capacity": 28,
    "availableRentBikes": 2,
    "availableReturnBikes": 26,
    "pressure": 0.909,
    "updatedAt": "2026-05-21 16:30:53"
  },
  {
    "id": "youbike-500101202",
    "source": "YouBike2.0臺北市公共自行車即時資訊",
    "type": "youbike",
    "district": "大安區",
    "name": "仁愛敦南圓環(東南側)",
    "address": "仁愛路四段110號前",
    "lat": 25.03715,
    "lng": 121.54936,
    "capacity": 16,
    "availableRentBikes": 1,
    "availableReturnBikes": 15,
    "pressure": 0.92,
    "updatedAt": "2026-05-21 16:30:53"
  },
  {
    "id": "youbike-500101203",
    "source": "YouBike2.0臺北市公共自行車即時資訊",
    "type": "youbike",
    "district": "大安區",
    "name": "臺北遠企購物中心",
    "address": "敦化南路二段201號前",
    "lat": 25.02709,
    "lng": 121.54902,
    "capacity": 33,
    "availableRentBikes": 13,
    "availableReturnBikes": 20,
    "pressure": 0.496,
    "updatedAt": "2026-05-21 16:30:53"
  },
  {
    "id": "youbike-500101204",
    "source": "YouBike2.0臺北市公共自行車即時資訊",
    "type": "youbike",
    "district": "大安區",
    "name": "外交部外交及國際事務學院",
    "address": "敦化南路一段280號",
    "lat": 25.0371,
    "lng": 121.54839,
    "capacity": 26,
    "availableRentBikes": 12,
    "availableReturnBikes": 14,
    "pressure": 0.409,
    "updatedAt": "2026-05-21 16:30:53"
  },
  {
    "id": "youbike-500101205",
    "source": "YouBike2.0臺北市公共自行車即時資訊",
    "type": "youbike",
    "district": "大安區",
    "name": "四維路170巷口",
    "address": "敦化南路二段92號對側中央分隔島",
    "lat": 25.02821,
    "lng": 121.54864,
    "capacity": 22,
    "availableRentBikes": 9,
    "availableReturnBikes": 13,
    "pressure": 0.476,
    "updatedAt": "2026-05-21 16:30:53"
  },
  {
    "id": "youbike-500101206",
    "source": "YouBike2.0臺北市公共自行車即時資訊",
    "type": "youbike",
    "district": "大安區",
    "name": "捷運大安站(3號出口)",
    "address": "信義路三段184號前",
    "lat": 25.03328,
    "lng": 121.5425,
    "capacity": 46,
    "availableRentBikes": 3,
    "availableReturnBikes": 43,
    "pressure": 0.917,
    "updatedAt": "2026-05-21 16:30:53"
  },
  {
    "id": "youbike-500101207",
    "source": "YouBike2.0臺北市公共自行車即時資訊",
    "type": "youbike",
    "district": "大安區",
    "name": "捷運臺電大樓站(2號出口)_1",
    "address": "羅斯福路三段201號旁",
    "lat": 25.02055,
    "lng": 121.52855,
    "capacity": 38,
    "availableRentBikes": 3,
    "availableReturnBikes": 35,
    "pressure": 0.899,
    "updatedAt": "2026-05-21 16:30:53"
  },
  {
    "id": "youbike-500101208",
    "source": "YouBike2.0臺北市公共自行車即時資訊",
    "type": "youbike",
    "district": "大安區",
    "name": "信義路四段199巷",
    "address": "信義路四段199巷/安和路一段90巷口",
    "lat": 25.03459,
    "lng": 121.55164,
    "capacity": 21,
    "availableRentBikes": 16,
    "availableReturnBikes": 5,
    "pressure": 0.318,
    "updatedAt": "2026-05-21 16:30:53"
  },
  {
    "id": "youbike-500101209",
    "source": "YouBike2.0臺北市公共自行車即時資訊",
    "type": "youbike",
    "district": "大安區",
    "name": "臺大資訊大樓",
    "address": "辛亥路二段(臺大外語學院外)",
    "lat": 25.02101,
    "lng": 121.54153,
    "capacity": 76,
    "availableRentBikes": 47,
    "availableReturnBikes": 28,
    "pressure": 0.345,
    "updatedAt": "2026-05-21 16:30:53"
  },
  {
    "id": "youbike-500101210",
    "source": "YouBike2.0臺北市公共自行車即時資訊",
    "type": "youbike",
    "district": "大安區",
    "name": "敦化南路二段81巷",
    "address": "敦化南路二段與敦化南路二段81巷口西北側",
    "lat": 25.03002,
    "lng": 121.54893,
    "capacity": 40,
    "availableRentBikes": 5,
    "availableReturnBikes": 35,
    "pressure": 0.84,
    "updatedAt": "2026-05-21 16:30:53"
  },
  {
    "id": "youbike-500101211",
    "source": "YouBike2.0臺北市公共自行車即時資訊",
    "type": "youbike",
    "district": "大安區",
    "name": "原臺北刑務所官舍",
    "address": "金華街78號對側",
    "lat": 25.03054,
    "lng": 121.52466,
    "capacity": 23,
    "availableRentBikes": 5,
    "availableReturnBikes": 18,
    "pressure": 0.722,
    "updatedAt": "2026-05-21 16:30:53"
  },
  {
    "id": "youbike-500101212",
    "source": "YouBike2.0臺北市公共自行車即時資訊",
    "type": "youbike",
    "district": "大安區",
    "name": "捷運國父紀念館站(1號出口)",
    "address": "光復南路200巷26號東側",
    "lat": 25.04205,
    "lng": 121.55657,
    "capacity": 24,
    "availableRentBikes": 11,
    "availableReturnBikes": 13,
    "pressure": 0.413,
    "updatedAt": "2026-05-21 16:30:53"
  },
  {
    "id": "youbike-500101213",
    "source": "YouBike2.0臺北市公共自行車即時資訊",
    "type": "youbike",
    "district": "大安區",
    "name": "懷生國中",
    "address": "忠孝東路三段248巷30號",
    "lat": 25.0401,
    "lng": 121.54122,
    "capacity": 24,
    "availableRentBikes": 7,
    "availableReturnBikes": 17,
    "pressure": 0.627,
    "updatedAt": "2026-05-21 16:30:53"
  },
  {
    "id": "youbike-500101214",
    "source": "YouBike2.0臺北市公共自行車即時資訊",
    "type": "youbike",
    "district": "大安區",
    "name": "仁愛敦南圓環(西北側)",
    "address": "仁愛路四段85號前",
    "lat": 25.03827,
    "lng": 121.54802,
    "capacity": 20,
    "availableRentBikes": 17,
    "availableReturnBikes": 3,
    "pressure": 0.304,
    "updatedAt": "2026-05-21 16:30:53"
  },
  {
    "id": "youbike-500101215",
    "source": "YouBike2.0臺北市公共自行車即時資訊",
    "type": "youbike",
    "district": "大安區",
    "name": "立人國小",
    "address": "安和路二段/敦化南路二段81巷(西南側)",
    "lat": 25.02974,
    "lng": 121.55146,
    "capacity": 17,
    "availableRentBikes": 8,
    "availableReturnBikes": 9,
    "pressure": 0.398,
    "updatedAt": "2026-05-21 16:30:53"
  },
  {
    "id": "youbike-500101216",
    "source": "YouBike2.0臺北市公共自行車即時資訊",
    "type": "youbike",
    "district": "大安區",
    "name": "和平東路二段18巷口",
    "address": "辛亥路二段43號前",
    "lat": 25.02268,
    "lng": 121.53608,
    "capacity": 24,
    "availableRentBikes": 2,
    "availableReturnBikes": 22,
    "pressure": 0.893,
    "updatedAt": "2026-05-21 16:30:53"
  },
  {
    "id": "youbike-500101217",
    "source": "YouBike2.0臺北市公共自行車即時資訊",
    "type": "youbike",
    "district": "大安區",
    "name": "捷運大安站(5號出口)",
    "address": "復興南路二段/信義路四段(東南側)",
    "lat": 25.03303,
    "lng": 121.54372,
    "capacity": 26,
    "availableRentBikes": 2,
    "availableReturnBikes": 23,
    "pressure": 0.891,
    "updatedAt": "2026-05-21 16:30:53"
  },
  {
    "id": "youbike-500101218",
    "source": "YouBike2.0臺北市公共自行車即時資訊",
    "type": "youbike",
    "district": "大安區",
    "name": "臨江公園",
    "address": "通化街143巷33號對側",
    "lat": 25.02832,
    "lng": 121.55592,
    "capacity": 23,
    "availableRentBikes": 3,
    "availableReturnBikes": 20,
    "pressure": 0.833,
    "updatedAt": "2026-05-21 16:30:53"
  },
  {
    "id": "youbike-500101219",
    "source": "YouBike2.0臺北市公共自行車即時資訊",
    "type": "youbike",
    "district": "大安區",
    "name": "羅斯福路四段113巷19弄口",
    "address": "羅斯福路四段119巷84號對側",
    "lat": 25.01027,
    "lng": 121.53998,
    "capacity": 14,
    "availableRentBikes": 2,
    "availableReturnBikes": 12,
    "pressure": 0.817,
    "updatedAt": "2026-05-21 16:30:53"
  },
  {
    "id": "youbike-500101221",
    "source": "YouBike2.0臺北市公共自行車即時資訊",
    "type": "youbike",
    "district": "大安區",
    "name": "忠孝東路四段248巷口",
    "address": "忠孝東路四段230號前",
    "lat": 25.04132,
    "lng": 121.55393,
    "capacity": 25,
    "availableRentBikes": 9,
    "availableReturnBikes": 16,
    "pressure": 0.539,
    "updatedAt": "2026-05-21 16:30:53"
  },
  {
    "id": "youbike-500101222",
    "source": "YouBike2.0臺北市公共自行車即時資訊",
    "type": "youbike",
    "district": "大安區",
    "name": "仁愛延吉路口(西北側)",
    "address": "仁愛路四段363號前",
    "lat": 25.03795,
    "lng": 121.55466,
    "capacity": 24,
    "availableRentBikes": 19,
    "availableReturnBikes": 5,
    "pressure": 0.313,
    "updatedAt": "2026-05-21 16:30:53"
  },
  {
    "id": "youbike-500101223",
    "source": "YouBike2.0臺北市公共自行車即時資訊",
    "type": "youbike",
    "district": "大安區",
    "name": "樂利路101巷口",
    "address": "樂利路97號前",
    "lat": 25.02528,
    "lng": 121.55224,
    "capacity": 13,
    "availableRentBikes": 3,
    "availableReturnBikes": 9,
    "pressure": 0.683,
    "updatedAt": "2026-05-21 16:30:53"
  },
  {
    "id": "youbike-500101224",
    "source": "YouBike2.0臺北市公共自行車即時資訊",
    "type": "youbike",
    "district": "大安區",
    "name": "羅斯福浦城街口",
    "address": "羅斯福路三段117號前",
    "lat": 25.02208,
    "lng": 121.52678,
    "capacity": 25,
    "availableRentBikes": 1,
    "availableReturnBikes": 24,
    "pressure": 0.949,
    "updatedAt": "2026-05-21 16:30:53"
  },
  {
    "id": "youbike-500101225",
    "source": "YouBike2.0臺北市公共自行車即時資訊",
    "type": "youbike",
    "district": "大安區",
    "name": "敦化南路一段295巷口",
    "address": "敦化南路一段295巷1號",
    "lat": 25.03551,
    "lng": 121.54951,
    "capacity": 18,
    "availableRentBikes": 10,
    "availableReturnBikes": 8,
    "pressure": 0.351,
    "updatedAt": "2026-05-21 16:30:53"
  },
  {
    "id": "youbike-500101226",
    "source": "YouBike2.0臺北市公共自行車即時資訊",
    "type": "youbike",
    "district": "大安區",
    "name": "通安區民活動中心",
    "address": "通安街129號對面",
    "lat": 25.02942,
    "lng": 121.55294,
    "capacity": 28,
    "availableRentBikes": 17,
    "availableReturnBikes": 11,
    "pressure": 0.343,
    "updatedAt": "2026-05-21 16:30:53"
  },
  {
    "id": "youbike-500101227",
    "source": "YouBike2.0臺北市公共自行車即時資訊",
    "type": "youbike",
    "district": "大安區",
    "name": "復興忠孝東路口(東南側)",
    "address": "復興南路一段191號前",
    "lat": 25.04061,
    "lng": 121.54389,
    "capacity": 28,
    "availableRentBikes": 18,
    "availableReturnBikes": 9,
    "pressure": 0.347,
    "updatedAt": "2026-05-21 16:30:53"
  },
  {
    "id": "youbike-500101228",
    "source": "YouBike2.0臺北市公共自行車即時資訊",
    "type": "youbike",
    "district": "大安區",
    "name": "仁愛大安路口(東北側)",
    "address": "仁愛路四段37號前",
    "lat": 25.03813,
    "lng": 121.54631,
    "capacity": 21,
    "availableRentBikes": 16,
    "availableReturnBikes": 5,
    "pressure": 0.318,
    "updatedAt": "2026-05-21 16:30:53"
  },
  {
    "id": "youbike-500101229",
    "source": "YouBike2.0臺北市公共自行車即時資訊",
    "type": "youbike",
    "district": "大安區",
    "name": "臺灣師範大學(浦城街)",
    "address": "浦城街1號對側",
    "lat": 25.02476,
    "lng": 121.52803,
    "capacity": 20,
    "availableRentBikes": 2,
    "availableReturnBikes": 17,
    "pressure": 0.858,
    "updatedAt": "2026-05-21 16:30:53"
  },
  {
    "id": "youbike-500101230",
    "source": "YouBike2.0臺北市公共自行車即時資訊",
    "type": "youbike",
    "district": "大安區",
    "name": "安和路二段69巷口",
    "address": "安和路二段/安和路二段69巷",
    "lat": 25.03056,
    "lng": 121.55252,
    "capacity": 20,
    "availableRentBikes": 20,
    "availableReturnBikes": 0,
    "pressure": 0.28,
    "updatedAt": "2026-05-21 16:30:53"
  },
  {
    "id": "youbike-500101231",
    "source": "YouBike2.0臺北市公共自行車即時資訊",
    "type": "youbike",
    "district": "大安區",
    "name": "大安國小",
    "address": "臥龍街131巷11弄與樂業街108巷口",
    "lat": 25.02014,
    "lng": 121.55084,
    "capacity": 25,
    "availableRentBikes": 3,
    "availableReturnBikes": 22,
    "pressure": 0.846,
    "updatedAt": "2026-05-21 16:30:53"
  },
  {
    "id": "youbike-500101232",
    "source": "YouBike2.0臺北市公共自行車即時資訊",
    "type": "youbike",
    "district": "大安區",
    "name": "捷運古亭站(3號出口)",
    "address": "羅斯福路二段81-1號前",
    "lat": 25.02572,
    "lng": 121.52359,
    "capacity": 15,
    "availableRentBikes": 6,
    "availableReturnBikes": 9,
    "pressure": 0.488,
    "updatedAt": "2026-05-21 16:30:53"
  },
  {
    "id": "youbike-500101233",
    "source": "YouBike2.0臺北市公共自行車即時資訊",
    "type": "youbike",
    "district": "大安區",
    "name": "捷運忠孝復興站(3號出口)",
    "address": "忠孝東路四段48號前",
    "lat": 25.04152,
    "lng": 121.54414,
    "capacity": 37,
    "availableRentBikes": 33,
    "availableReturnBikes": 4,
    "pressure": 0.297,
    "updatedAt": "2026-05-21 16:30:53"
  },
  {
    "id": "youbike-500101234",
    "source": "YouBike2.0臺北市公共自行車即時資訊",
    "type": "youbike",
    "district": "大安區",
    "name": "和平東路二段90巷",
    "address": "和平東路二段90巷/和平東路二段76巷5弄",
    "lat": 25.02468,
    "lng": 121.53965,
    "capacity": 20,
    "availableRentBikes": 2,
    "availableReturnBikes": 18,
    "pressure": 0.872,
    "updatedAt": "2026-05-21 16:30:53"
  },
  {
    "id": "youbike-500101235",
    "source": "YouBike2.0臺北市公共自行車即時資訊",
    "type": "youbike",
    "district": "大安區",
    "name": "光復南路420巷口",
    "address": "光復南路438號",
    "lat": 25.03601,
    "lng": 121.55742,
    "capacity": 16,
    "availableRentBikes": 2,
    "availableReturnBikes": 14,
    "pressure": 0.84,
    "updatedAt": "2026-05-21 16:30:53"
  },
  {
    "id": "youbike-500101236",
    "source": "YouBike2.0臺北市公共自行車即時資訊",
    "type": "youbike",
    "district": "大安區",
    "name": "富陽臥龍街口",
    "address": "富陽街129號前",
    "lat": 25.0187,
    "lng": 121.55688,
    "capacity": 18,
    "availableRentBikes": 9,
    "availableReturnBikes": 9,
    "pressure": 0.36,
    "updatedAt": "2026-05-21 16:30:53"
  },
  {
    "id": "youbike-500101237",
    "source": "YouBike2.0臺北市公共自行車即時資訊",
    "type": "youbike",
    "district": "大安區",
    "name": "仁愛復興路口",
    "address": "仁愛路四段1號前",
    "lat": 25.03817,
    "lng": 121.544,
    "capacity": 29,
    "availableRentBikes": 13,
    "availableReturnBikes": 16,
    "pressure": 0.426,
    "updatedAt": "2026-05-21 16:30:53"
  },
  {
    "id": "youbike-500101238",
    "source": "YouBike2.0臺北市公共自行車即時資訊",
    "type": "youbike",
    "district": "大安區",
    "name": "仁愛敦南圓環(東側)",
    "address": "仁愛路四段121號",
    "lat": 25.03804,
    "lng": 121.55042,
    "capacity": 26,
    "availableRentBikes": 3,
    "availableReturnBikes": 22,
    "pressure": 0.842,
    "updatedAt": "2026-05-21 16:30:53"
  },
  {
    "id": "youbike-500101239",
    "source": "YouBike2.0臺北市公共自行車即時資訊",
    "type": "youbike",
    "district": "大安區",
    "name": "古風公園",
    "address": "龍泉街93巷7號對側",
    "lat": 25.02187,
    "lng": 121.52912,
    "capacity": 15,
    "availableRentBikes": 3,
    "availableReturnBikes": 12,
    "pressure": 0.744,
    "updatedAt": "2026-05-21 16:30:53"
  },
  {
    "id": "youbike-500101240",
    "source": "YouBike2.0臺北市公共自行車即時資訊",
    "type": "youbike",
    "district": "大安區",
    "name": "和平東路二段76巷",
    "address": "和平東路二段96巷20弄2號旁",
    "lat": 25.02263,
    "lng": 121.53906,
    "capacity": 40,
    "availableRentBikes": 1,
    "availableReturnBikes": 39,
    "pressure": 0.968,
    "updatedAt": "2026-05-21 16:30:53"
  },
  {
    "id": "youbike-500101241",
    "source": "YouBike2.0臺北市公共自行車即時資訊",
    "type": "youbike",
    "district": "大安區",
    "name": "敦化信義路口(東南側)",
    "address": "敦化南路二段9號",
    "lat": 25.03276,
    "lng": 121.54907,
    "capacity": 20,
    "availableRentBikes": 2,
    "availableReturnBikes": 18,
    "pressure": 0.872,
    "updatedAt": "2026-05-21 16:30:53"
  },
  {
    "id": "youbike-500101242",
    "source": "YouBike2.0臺北市公共自行車即時資訊",
    "type": "youbike",
    "district": "大安區",
    "name": "和平東路三段308巷口",
    "address": "樂業街173號對側",
    "lat": 25.01883,
    "lng": 121.5544,
    "capacity": 14,
    "availableRentBikes": 0,
    "availableReturnBikes": 14,
    "pressure": 1,
    "updatedAt": "2026-05-21 16:30:53"
  },
  {
    "id": "youbike-500101243",
    "source": "YouBike2.0臺北市公共自行車即時資訊",
    "type": "youbike",
    "district": "大安區",
    "name": "忠孝建國路口(東南側)",
    "address": "忠孝東路三段132號前",
    "lat": 25.04159,
    "lng": 121.5378,
    "capacity": 21,
    "availableRentBikes": 2,
    "availableReturnBikes": 19,
    "pressure": 0.878,
    "updatedAt": "2026-05-21 16:30:53"
  },
  {
    "id": "youbike-500101244",
    "source": "YouBike2.0臺北市公共自行車即時資訊",
    "type": "youbike",
    "district": "大安區",
    "name": "浦城街26巷",
    "address": "浦城街26巷8號對面",
    "lat": 25.02324,
    "lng": 121.52618,
    "capacity": 17,
    "availableRentBikes": 3,
    "availableReturnBikes": 14,
    "pressure": 0.774,
    "updatedAt": "2026-05-21 16:30:53"
  },
  {
    "id": "youbike-500101245",
    "source": "YouBike2.0臺北市公共自行車即時資訊",
    "type": "youbike",
    "district": "大安區",
    "name": "青峰活動中心",
    "address": "辛亥路三段(青峰活動中心)",
    "lat": 25.01524,
    "lng": 121.55121,
    "capacity": 25,
    "availableRentBikes": 12,
    "availableReturnBikes": 13,
    "pressure": 0.386,
    "updatedAt": "2026-05-21 16:30:53"
  },
  {
    "id": "youbike-500101246",
    "source": "YouBike2.0臺北市公共自行車即時資訊",
    "type": "youbike",
    "district": "大安區",
    "name": "忠孝東路三段216巷口",
    "address": "忠孝東路三段218號前",
    "lat": 25.04157,
    "lng": 121.5402,
    "capacity": 28,
    "availableRentBikes": 13,
    "availableReturnBikes": 15,
    "pressure": 0.406,
    "updatedAt": "2026-05-21 16:30:53"
  },
  {
    "id": "youbike-500101247",
    "source": "YouBike2.0臺北市公共自行車即時資訊",
    "type": "youbike",
    "district": "大安區",
    "name": "捷運忠孝復興站(4號出口)",
    "address": "忠孝東路四段7號前",
    "lat": 25.04173,
    "lng": 121.54412,
    "capacity": 25,
    "availableRentBikes": 4,
    "availableReturnBikes": 21,
    "pressure": 0.795,
    "updatedAt": "2026-05-21 16:30:53"
  },
  {
    "id": "youbike-500101248",
    "source": "YouBike2.0臺北市公共自行車即時資訊",
    "type": "youbike",
    "district": "大安區",
    "name": "和平溫州街口",
    "address": "和平東路一段187號(前)",
    "lat": 25.02634,
    "lng": 121.53342,
    "capacity": 23,
    "availableRentBikes": 0,
    "availableReturnBikes": 23,
    "pressure": 1,
    "updatedAt": "2026-05-21 16:30:53"
  },
  {
    "id": "youbike-500101250",
    "source": "YouBike2.0臺北市公共自行車即時資訊",
    "type": "youbike",
    "district": "大安區",
    "name": "國立臺北教育大學創意館",
    "address": "復興南路二段337巷6弄14號對側",
    "lat": 25.02305,
    "lng": 121.54394,
    "capacity": 32,
    "availableRentBikes": 7,
    "availableReturnBikes": 25,
    "pressure": 0.72,
    "updatedAt": "2026-05-21 16:30:53"
  },
  {
    "id": "youbike-500101251",
    "source": "YouBike2.0臺北市公共自行車即時資訊",
    "type": "youbike",
    "district": "大安區",
    "name": "捷運忠孝復興站(1號出口)",
    "address": "忠孝東路三段303號",
    "lat": 25.04199,
    "lng": 121.54362,
    "capacity": 27,
    "availableRentBikes": 3,
    "availableReturnBikes": 24,
    "pressure": 0.858,
    "updatedAt": "2026-05-21 16:30:53"
  },
  {
    "id": "youbike-500101252",
    "source": "YouBike2.0臺北市公共自行車即時資訊",
    "type": "youbike",
    "district": "大安區",
    "name": "政大公企中心",
    "address": "金華街187號(後方人行道)",
    "lat": 25.03076,
    "lng": 121.52781,
    "capacity": 13,
    "availableRentBikes": 11,
    "availableReturnBikes": 2,
    "pressure": 0.305,
    "updatedAt": "2026-05-21 16:30:53"
  },
  {
    "id": "youbike-500101253",
    "source": "YouBike2.0臺北市公共自行車即時資訊",
    "type": "youbike",
    "district": "大安區",
    "name": "大安路二段90巷口",
    "address": "大安路二段55號(對面)",
    "lat": 25.03117,
    "lng": 121.54602,
    "capacity": 19,
    "availableRentBikes": 0,
    "availableReturnBikes": 18,
    "pressure": 0.985,
    "updatedAt": "2026-05-21 16:30:53"
  },
  {
    "id": "youbike-500101254",
    "source": "YouBike2.0臺北市公共自行車即時資訊",
    "type": "youbike",
    "district": "大安區",
    "name": "師大附中運動中心",
    "address": "信義路三段111巷143號(旁)",
    "lat": 25.03626,
    "lng": 121.53997,
    "capacity": 33,
    "availableRentBikes": 7,
    "availableReturnBikes": 26,
    "pressure": 0.728,
    "updatedAt": "2026-05-21 16:30:53"
  },
  {
    "id": "youbike-500101255",
    "source": "YouBike2.0臺北市公共自行車即時資訊",
    "type": "youbike",
    "district": "大安區",
    "name": "錦安區民活動中心",
    "address": "潮州街160號對側",
    "lat": 25.02846,
    "lng": 121.52935,
    "capacity": 20,
    "availableRentBikes": 6,
    "availableReturnBikes": 13,
    "pressure": 0.602,
    "updatedAt": "2026-05-21 16:30:53"
  },
  {
    "id": "youbike-500101256",
    "source": "YouBike2.0臺北市公共自行車即時資訊",
    "type": "youbike",
    "district": "大安區",
    "name": "敦化基隆路口(東北側)",
    "address": "敦化南路二段333號(前)",
    "lat": 25.02196,
    "lng": 121.54899,
    "capacity": 22,
    "availableRentBikes": 2,
    "availableReturnBikes": 20,
    "pressure": 0.884,
    "updatedAt": "2026-05-21 16:30:53"
  },
  {
    "id": "youbike-500101257",
    "source": "YouBike2.0臺北市公共自行車即時資訊",
    "type": "youbike",
    "district": "大安區",
    "name": "龍圖公園",
    "address": "復興南路二段78巷42弄5號對面",
    "lat": 25.0305,
    "lng": 121.54184,
    "capacity": 20,
    "availableRentBikes": 5,
    "availableReturnBikes": 15,
    "pressure": 0.68,
    "updatedAt": "2026-05-21 16:30:53"
  },
  {
    "id": "youbike-500101258",
    "source": "YouBike2.0臺北市公共自行車即時資訊",
    "type": "youbike",
    "district": "大安區",
    "name": "新生南路二段54巷口",
    "address": "新生南路二段50號",
    "lat": 25.02878,
    "lng": 121.53412,
    "capacity": 26,
    "availableRentBikes": 5,
    "availableReturnBikes": 20,
    "pressure": 0.743,
    "updatedAt": "2026-05-21 16:30:53"
  },
  {
    "id": "youbike-500101259",
    "source": "YouBike2.0臺北市公共自行車即時資訊",
    "type": "youbike",
    "district": "大安區",
    "name": "臺靜農人文會館",
    "address": "溫州街25號",
    "lat": 25.02462,
    "lng": 121.53347,
    "capacity": 12,
    "availableRentBikes": 5,
    "availableReturnBikes": 6,
    "pressure": 0.443,
    "updatedAt": "2026-05-21 16:30:53"
  },
  {
    "id": "youbike-500101260",
    "source": "YouBike2.0臺北市公共自行車即時資訊",
    "type": "youbike",
    "district": "大安區",
    "name": "建國南路二段瑞安街264巷口",
    "address": "建國南路二段197號(對面)",
    "lat": 25.02716,
    "lng": 121.53782,
    "capacity": 33,
    "availableRentBikes": 4,
    "availableReturnBikes": 29,
    "pressure": 0.845,
    "updatedAt": "2026-05-21 16:30:53"
  },
  {
    "id": "youbike-500101261",
    "source": "YouBike2.0臺北市公共自行車即時資訊",
    "type": "youbike",
    "district": "大安區",
    "name": "辛亥路一段77巷口",
    "address": "辛亥路一段79號旁",
    "lat": 25.02128,
    "lng": 121.53034,
    "capacity": 22,
    "availableRentBikes": 0,
    "availableReturnBikes": 22,
    "pressure": 1,
    "updatedAt": "2026-05-21 16:30:53"
  },
  {
    "id": "youbike-500101262",
    "source": "YouBike2.0臺北市公共自行車即時資訊",
    "type": "youbike",
    "district": "大安區",
    "name": "愛國東路210巷口",
    "address": "愛國東路210巷/愛國東路(東南側)",
    "lat": 25.03187,
    "lng": 121.52407,
    "capacity": 34,
    "availableRentBikes": 25,
    "availableReturnBikes": 8,
    "pressure": 0.331,
    "updatedAt": "2026-05-21 16:30:53"
  },
  {
    "id": "youbike-500101264",
    "source": "YouBike2.0臺北市公共自行車即時資訊",
    "type": "youbike",
    "district": "大安區",
    "name": "金華國中",
    "address": "新生南路二段32號(旁)",
    "lat": 25.03165,
    "lng": 121.53306,
    "capacity": 21,
    "availableRentBikes": 0,
    "availableReturnBikes": 21,
    "pressure": 1,
    "updatedAt": "2026-05-21 16:30:53"
  },
  {
    "id": "youbike-500101265",
    "source": "YouBike2.0臺北市公共自行車即時資訊",
    "type": "youbike",
    "district": "大安區",
    "name": "羅斯福路三段283巷",
    "address": "羅斯福路三段269巷51弄9號(旁)",
    "lat": 25.02017,
    "lng": 121.53178,
    "capacity": 18,
    "availableRentBikes": 0,
    "availableReturnBikes": 18,
    "pressure": 1,
    "updatedAt": "2026-05-21 16:30:53"
  },
  {
    "id": "youbike-500101266",
    "source": "YouBike2.0臺北市公共自行車即時資訊",
    "type": "youbike",
    "district": "大安區",
    "name": "臺科大側門(基隆路四段73巷)",
    "address": "基隆路四段75號",
    "lat": 25.01291,
    "lng": 121.53967,
    "capacity": 35,
    "availableRentBikes": 9,
    "availableReturnBikes": 25,
    "pressure": 0.663,
    "updatedAt": "2026-05-21 16:30:53"
  },
  {
    "id": "youbike-500101267",
    "source": "YouBike2.0臺北市公共自行車即時資訊",
    "type": "youbike",
    "district": "大安區",
    "name": "黎和公園",
    "address": "臥龍街316號(對面)",
    "lat": 25.01663,
    "lng": 121.56011,
    "capacity": 15,
    "availableRentBikes": 2,
    "availableReturnBikes": 13,
    "pressure": 0.829,
    "updatedAt": "2026-05-21 16:30:53"
  },
  {
    "id": "youbike-500101268",
    "source": "YouBike2.0臺北市公共自行車即時資訊",
    "type": "youbike",
    "district": "大安區",
    "name": "信義四維路口",
    "address": "信義路四段111號(前)",
    "lat": 25.03341,
    "lng": 121.54796,
    "capacity": 19,
    "availableRentBikes": 2,
    "availableReturnBikes": 17,
    "pressure": 0.865,
    "updatedAt": "2026-05-21 16:30:53"
  },
  {
    "id": "youbike-500101269",
    "source": "YouBike2.0臺北市公共自行車即時資訊",
    "type": "youbike",
    "district": "大安區",
    "name": "和平高中(辛亥基隆路口)",
    "address": "辛亥路三段188號北側",
    "lat": 25.01917,
    "lng": 121.54708,
    "capacity": 55,
    "availableRentBikes": 0,
    "availableReturnBikes": 55,
    "pressure": 1,
    "updatedAt": "2026-05-21 16:30:53"
  },
  {
    "id": "youbike-500101270",
    "source": "YouBike2.0臺北市公共自行車即時資訊",
    "type": "youbike",
    "district": "大安區",
    "name": "和平東路二段107巷口",
    "address": "和平東路二段95號(前)",
    "lat": 25.02555,
    "lng": 121.53951,
    "capacity": 12,
    "availableRentBikes": 1,
    "availableReturnBikes": 11,
    "pressure": 0.893,
    "updatedAt": "2026-05-21 16:30:53"
  },
  {
    "id": "youbike-500101271",
    "source": "YouBike2.0臺北市公共自行車即時資訊",
    "type": "youbike",
    "district": "大安區",
    "name": "信義金山路口(西南側)",
    "address": "信義路二段88號(前)",
    "lat": 25.03407,
    "lng": 121.52682,
    "capacity": 12,
    "availableRentBikes": 7,
    "availableReturnBikes": 5,
    "pressure": 0.347,
    "updatedAt": "2026-05-21 16:30:53"
  },
  {
    "id": "youbike-500101272",
    "source": "YouBike2.0臺北市公共自行車即時資訊",
    "type": "youbike",
    "district": "大安區",
    "name": "金華國中(新生南路二段30巷)",
    "address": "新生南路二段30巷19號",
    "lat": 25.03137,
    "lng": 121.5313,
    "capacity": 15,
    "availableRentBikes": 12,
    "availableReturnBikes": 3,
    "pressure": 0.312,
    "updatedAt": "2026-05-21 16:30:53"
  },
  {
    "id": "youbike-500101273",
    "source": "YouBike2.0臺北市公共自行車即時資訊",
    "type": "youbike",
    "district": "大安區",
    "name": "羅斯福路四段123巷",
    "address": "羅斯福路四段123巷17號對側",
    "lat": 25.01036,
    "lng": 121.53752,
    "capacity": 15,
    "availableRentBikes": 6,
    "availableReturnBikes": 9,
    "pressure": 0.488,
    "updatedAt": "2026-05-21 16:30:53"
  },
  {
    "id": "youbike-500101274",
    "source": "YouBike2.0臺北市公共自行車即時資訊",
    "type": "youbike",
    "district": "大安區",
    "name": "捷運科技大樓站(2號出口)",
    "address": "復興南路二段224號",
    "lat": 25.02592,
    "lng": 121.54328,
    "capacity": 72,
    "availableRentBikes": 16,
    "availableReturnBikes": 56,
    "pressure": 0.716,
    "updatedAt": "2026-05-21 16:30:53"
  },
  {
    "id": "youbike-500101276",
    "source": "YouBike2.0臺北市公共自行車即時資訊",
    "type": "youbike",
    "district": "大安區",
    "name": "羅斯福新生南路口",
    "address": "羅斯福路四段/新生南路三段(東北側)",
    "lat": 25.01604,
    "lng": 121.53316,
    "capacity": 32,
    "availableRentBikes": 11,
    "availableReturnBikes": 21,
    "pressure": 0.56,
    "updatedAt": "2026-05-21 16:30:53"
  },
  {
    "id": "youbike-500103001",
    "source": "YouBike2.0臺北市公共自行車即時資訊",
    "type": "youbike",
    "district": "大同區",
    "name": "延平國宅",
    "address": "延平北路五段1-1號(對面)",
    "lat": 25.07894,
    "lng": 121.51121,
    "capacity": 41,
    "availableRentBikes": 4,
    "availableReturnBikes": 37,
    "pressure": 0.875,
    "updatedAt": "2026-05-21 16:30:53"
  },
  {
    "id": "youbike-500103002",
    "source": "YouBike2.0臺北市公共自行車即時資訊",
    "type": "youbike",
    "district": "大同區",
    "name": "臺北市立圖書館大同分館",
    "address": "重慶北路三段318號旁",
    "lat": 25.0741,
    "lng": 121.51349,
    "capacity": 57,
    "availableRentBikes": 18,
    "availableReturnBikes": 39,
    "pressure": 0.596,
    "updatedAt": "2026-05-21 16:30:53"
  },
  {
    "id": "youbike-500103003",
    "source": "YouBike2.0臺北市公共自行車即時資訊",
    "type": "youbike",
    "district": "大同區",
    "name": "合昌宮",
    "address": "環河北路二段371號旁",
    "lat": 25.07717,
    "lng": 121.50934,
    "capacity": 15,
    "availableRentBikes": 12,
    "availableReturnBikes": 3,
    "pressure": 0.312,
    "updatedAt": "2026-05-21 16:30:53"
  },
  {
    "id": "youbike-500103004",
    "source": "YouBike2.0臺北市公共自行車即時資訊",
    "type": "youbike",
    "district": "大同區",
    "name": "民族延平路口",
    "address": "延平北路三段123號北側",
    "lat": 25.06864,
    "lng": 121.5107,
    "capacity": 36,
    "availableRentBikes": 4,
    "availableReturnBikes": 31,
    "pressure": 0.85,
    "updatedAt": "2026-05-21 16:30:53"
  },
  {
    "id": "youbike-500103005",
    "source": "YouBike2.0臺北市公共自行車即時資訊",
    "type": "youbike",
    "district": "大同區",
    "name": "重慶酒泉街口",
    "address": "重慶北路三段260號前",
    "lat": 25.07158,
    "lng": 121.51368,
    "capacity": 44,
    "availableRentBikes": 2,
    "availableReturnBikes": 41,
    "pressure": 0.935,
    "updatedAt": "2026-05-21 16:30:53"
  },
  {
    "id": "youbike-500103006",
    "source": "YouBike2.0臺北市公共自行車即時資訊",
    "type": "youbike",
    "district": "大同區",
    "name": "樹德公園",
    "address": "大龍街85巷12號對側",
    "lat": 25.06647,
    "lng": 121.5165,
    "capacity": 14,
    "availableRentBikes": 12,
    "availableReturnBikes": 2,
    "pressure": 0.303,
    "updatedAt": "2026-05-21 16:30:53"
  },
  {
    "id": "youbike-500103007",
    "source": "YouBike2.0臺北市公共自行車即時資訊",
    "type": "youbike",
    "district": "大同區",
    "name": "陳天來故居",
    "address": "西寧北路112號前方",
    "lat": 25.05601,
    "lng": 121.50895,
    "capacity": 16,
    "availableRentBikes": 1,
    "availableReturnBikes": 15,
    "pressure": 0.92,
    "updatedAt": "2026-05-21 16:30:53"
  },
  {
    "id": "youbike-500103008",
    "source": "YouBike2.0臺北市公共自行車即時資訊",
    "type": "youbike",
    "district": "大同區",
    "name": "臺北孔廟",
    "address": "哈密街61號口對側人行道",
    "lat": 25.07378,
    "lng": 121.51583,
    "capacity": 37,
    "availableRentBikes": 12,
    "availableReturnBikes": 25,
    "pressure": 0.585,
    "updatedAt": "2026-05-21 16:30:53"
  },
  {
    "id": "youbike-500103009",
    "source": "YouBike2.0臺北市公共自行車即時資訊",
    "type": "youbike",
    "district": "大同區",
    "name": "捷運圓山站(1號出口)",
    "address": "捷運圓山站(1號出口)東側",
    "lat": 25.07133,
    "lng": 121.52024,
    "capacity": 81,
    "availableRentBikes": 57,
    "availableReturnBikes": 24,
    "pressure": 0.327,
    "updatedAt": "2026-05-21 16:30:53"
  },
  {
    "id": "youbike-500103010",
    "source": "YouBike2.0臺北市公共自行車即時資訊",
    "type": "youbike",
    "district": "大同區",
    "name": "酒泉延平路口",
    "address": "酒泉街235號前",
    "lat": 25.0722,
    "lng": 121.51057,
    "capacity": 46,
    "availableRentBikes": 29,
    "availableReturnBikes": 17,
    "pressure": 0.339,
    "updatedAt": "2026-05-21 16:30:53"
  },
  {
    "id": "youbike-500103011",
    "source": "YouBike2.0臺北市公共自行車即時資訊",
    "type": "youbike",
    "district": "大同區",
    "name": "重慶國中",
    "address": "敦煌路19號前",
    "lat": 25.07567,
    "lng": 121.51862,
    "capacity": 64,
    "availableRentBikes": 9,
    "availableReturnBikes": 55,
    "pressure": 0.82,
    "updatedAt": "2026-05-21 16:30:53"
  },
  {
    "id": "youbike-500103012",
    "source": "YouBike2.0臺北市公共自行車即時資訊",
    "type": "youbike",
    "district": "大同區",
    "name": "重慶北路三段383巷口",
    "address": "敦煌路與重慶北路三段383巷口",
    "lat": 25.07598,
    "lng": 121.51409,
    "capacity": 34,
    "availableRentBikes": 5,
    "availableReturnBikes": 29,
    "pressure": 0.812,
    "updatedAt": "2026-05-21 16:30:53"
  },
  {
    "id": "youbike-500103013",
    "source": "YouBike2.0臺北市公共自行車即時資訊",
    "type": "youbike",
    "district": "大同區",
    "name": "台北數位產業園區",
    "address": "承德路三段287號前方",
    "lat": 25.07447,
    "lng": 121.52003,
    "capacity": 24,
    "availableRentBikes": 8,
    "availableReturnBikes": 16,
    "pressure": 0.573,
    "updatedAt": "2026-05-21 16:30:53"
  },
  {
    "id": "youbike-500103019",
    "source": "YouBike2.0臺北市公共自行車即時資訊",
    "type": "youbike",
    "district": "大同區",
    "name": "民權延平路口(西北側)",
    "address": "民權西路239號前方",
    "lat": 25.06326,
    "lng": 121.51099,
    "capacity": 20,
    "availableRentBikes": 6,
    "availableReturnBikes": 14,
    "pressure": 0.616,
    "updatedAt": "2026-05-21 16:30:53"
  },
  {
    "id": "youbike-500103020",
    "source": "YouBike2.0臺北市公共自行車即時資訊",
    "type": "youbike",
    "district": "大同區",
    "name": "民權迪化街口",
    "address": "民權西路與迪化街一段口(橋墩下)",
    "lat": 25.06327,
    "lng": 121.50943,
    "capacity": 45,
    "availableRentBikes": 10,
    "availableReturnBikes": 35,
    "pressure": 0.716,
    "updatedAt": "2026-05-21 16:30:53"
  },
  {
    "id": "youbike-500103021",
    "source": "YouBike2.0臺北市公共自行車即時資訊",
    "type": "youbike",
    "district": "大同區",
    "name": "大稻埕公園",
    "address": "安西街1巷7號(對側)",
    "lat": 25.05915,
    "lng": 121.51033,
    "capacity": 35,
    "availableRentBikes": 13,
    "availableReturnBikes": 22,
    "pressure": 0.525,
    "updatedAt": "2026-05-21 16:30:53"
  },
  {
    "id": "youbike-500103022",
    "source": "YouBike2.0臺北市公共自行車即時資訊",
    "type": "youbike",
    "district": "大同區",
    "name": "大龍老人住宅",
    "address": "民族西路82號前方",
    "lat": 25.06853,
    "lng": 121.51729,
    "capacity": 14,
    "availableRentBikes": 2,
    "availableReturnBikes": 12,
    "pressure": 0.817,
    "updatedAt": "2026-05-21 16:30:53"
  },
  {
    "id": "youbike-500103023",
    "source": "YouBike2.0臺北市公共自行車即時資訊",
    "type": "youbike",
    "district": "大同區",
    "name": "大龍峒社會住宅",
    "address": "承德路三段210號旁",
    "lat": 25.0708,
    "lng": 121.51826,
    "capacity": 34,
    "availableRentBikes": 1,
    "availableReturnBikes": 33,
    "pressure": 0.962,
    "updatedAt": "2026-05-21 16:30:53"
  },
  {
    "id": "youbike-500103024",
    "source": "YouBike2.0臺北市公共自行車即時資訊",
    "type": "youbike",
    "district": "大同區",
    "name": "捷運大橋頭站(2號出口)",
    "address": "捷運大橋頭站(2號出口)西側",
    "lat": 25.06314,
    "lng": 121.51308,
    "capacity": 57,
    "availableRentBikes": 3,
    "availableReturnBikes": 54,
    "pressure": 0.933,
    "updatedAt": "2026-05-21 16:30:53"
  },
  {
    "id": "youbike-500103025",
    "source": "YouBike2.0臺北市公共自行車即時資訊",
    "type": "youbike",
    "district": "大同區",
    "name": "捷運大橋頭站(1A出口)",
    "address": "民權西路237號旁",
    "lat": 25.06325,
    "lng": 121.51162,
    "capacity": 30,
    "availableRentBikes": 6,
    "availableReturnBikes": 24,
    "pressure": 0.744,
    "updatedAt": "2026-05-21 16:30:53"
  },
  {
    "id": "youbike-500103026",
    "source": "YouBike2.0臺北市公共自行車即時資訊",
    "type": "youbike",
    "district": "大同區",
    "name": "捷運民權西路站(2號出口)",
    "address": "捷運民權西路站(2號出口)西側",
    "lat": 25.06174,
    "lng": 121.51969,
    "capacity": 25,
    "availableRentBikes": 12,
    "availableReturnBikes": 13,
    "pressure": 0.386,
    "updatedAt": "2026-05-21 16:30:53"
  },
  {
    "id": "youbike-500103027",
    "source": "YouBike2.0臺北市公共自行車即時資訊",
    "type": "youbike",
    "district": "大同區",
    "name": "捷運雙連站(2號出口)",
    "address": "萬全街22號對面",
    "lat": 25.05826,
    "lng": 121.52063,
    "capacity": 41,
    "availableRentBikes": 28,
    "availableReturnBikes": 12,
    "pressure": 0.338,
    "updatedAt": "2026-05-21 16:30:53"
  },
  {
    "id": "youbike-500103028",
    "source": "YouBike2.0臺北市公共自行車即時資訊",
    "type": "youbike",
    "district": "大同區",
    "name": "捷運北門站(3號出口)",
    "address": "塔城街與鄭州路口西南側",
    "lat": 25.04991,
    "lng": 121.5104,
    "capacity": 86,
    "availableRentBikes": 22,
    "availableReturnBikes": 64,
    "pressure": 0.673,
    "updatedAt": "2026-05-21 16:30:53"
  },
  {
    "id": "youbike-500103029",
    "source": "YouBike2.0臺北市公共自行車即時資訊",
    "type": "youbike",
    "district": "大同區",
    "name": "朝陽公園",
    "address": "重慶北路二段62-1號旁",
    "lat": 25.05592,
    "lng": 121.51367,
    "capacity": 10,
    "availableRentBikes": 9,
    "availableReturnBikes": 1,
    "pressure": 0.296,
    "updatedAt": "2026-05-21 16:30:53"
  },
  {
    "id": "youbike-500103030",
    "source": "YouBike2.0臺北市公共自行車即時資訊",
    "type": "youbike",
    "district": "大同區",
    "name": "永樂市場",
    "address": "南京西路233巷103號旁",
    "lat": 25.05454,
    "lng": 121.51052,
    "capacity": 36,
    "availableRentBikes": 32,
    "availableReturnBikes": 4,
    "pressure": 0.298,
    "updatedAt": "2026-05-21 16:30:53"
  },
  {
    "id": "youbike-500103031",
    "source": "YouBike2.0臺北市公共自行車即時資訊",
    "type": "youbike",
    "district": "大同區",
    "name": "大龍公園",
    "address": "大龍街217號對側",
    "lat": 25.07049,
    "lng": 121.51596,
    "capacity": 26,
    "availableRentBikes": 1,
    "availableReturnBikes": 25,
    "pressure": 0.951,
    "updatedAt": "2026-05-21 16:30:53"
  },
  {
    "id": "youbike-500103032",
    "source": "YouBike2.0臺北市公共自行車即時資訊",
    "type": "youbike",
    "district": "大同區",
    "name": "重慶涼州街口",
    "address": "重慶北路二段180號旁",
    "lat": 25.06054,
    "lng": 121.51338,
    "capacity": 13,
    "availableRentBikes": 2,
    "availableReturnBikes": 9,
    "pressure": 0.76,
    "updatedAt": "2026-05-21 16:30:53"
  },
  {
    "id": "youbike-500103033",
    "source": "YouBike2.0臺北市公共自行車即時資訊",
    "type": "youbike",
    "district": "大同區",
    "name": "圓山線形公園",
    "address": "玉門街/民族西路(西北側)",
    "lat": 25.06867,
    "lng": 121.51993,
    "capacity": 26,
    "availableRentBikes": 2,
    "availableReturnBikes": 24,
    "pressure": 0.902,
    "updatedAt": "2026-05-21 16:30:53"
  },
  {
    "id": "youbike-500103034",
    "source": "YouBike2.0臺北市公共自行車即時資訊",
    "type": "youbike",
    "district": "大同區",
    "name": "圓環站",
    "address": "重慶北路一段128號前",
    "lat": 25.05369,
    "lng": 121.51418,
    "capacity": 31,
    "availableRentBikes": 8,
    "availableReturnBikes": 23,
    "pressure": 0.67,
    "updatedAt": "2026-05-21 16:30:53"
  },
  {
    "id": "youbike-500103035",
    "source": "YouBike2.0臺北市公共自行車即時資訊",
    "type": "youbike",
    "district": "大同區",
    "name": "重慶民族路口",
    "address": "重慶北路三段138號前",
    "lat": 25.06853,
    "lng": 121.51359,
    "capacity": 32,
    "availableRentBikes": 6,
    "availableReturnBikes": 26,
    "pressure": 0.76,
    "updatedAt": "2026-05-21 16:30:53"
  },
  {
    "id": "youbike-500103036",
    "source": "YouBike2.0臺北市公共自行車即時資訊",
    "type": "youbike",
    "district": "大同區",
    "name": "承德路三段8巷口",
    "address": "承德路三段14號前",
    "lat": 25.06407,
    "lng": 121.51822,
    "capacity": 21,
    "availableRentBikes": 8,
    "availableReturnBikes": 13,
    "pressure": 0.512,
    "updatedAt": "2026-05-21 16:30:53"
  },
  {
    "id": "youbike-500103037",
    "source": "YouBike2.0臺北市公共自行車即時資訊",
    "type": "youbike",
    "district": "大同區",
    "name": "太原廣場",
    "address": "鄭州路23號(旁)",
    "lat": 25.04925,
    "lng": 121.51468,
    "capacity": 31,
    "availableRentBikes": 21,
    "availableReturnBikes": 9,
    "pressure": 0.341,
    "updatedAt": "2026-05-21 16:30:53"
  },
  {
    "id": "youbike-500103038",
    "source": "YouBike2.0臺北市公共自行車即時資訊",
    "type": "youbike",
    "district": "大同區",
    "name": "國順公園",
    "address": "昌吉街117號前",
    "lat": 25.06594,
    "lng": 121.51078,
    "capacity": 20,
    "availableRentBikes": 14,
    "availableReturnBikes": 6,
    "pressure": 0.328,
    "updatedAt": "2026-05-21 16:30:53"
  },
  {
    "id": "youbike-500103039",
    "source": "YouBike2.0臺北市公共自行車即時資訊",
    "type": "youbike",
    "district": "大同區",
    "name": "聯合醫院中興院區",
    "address": "長安西路299號(對面)",
    "lat": 25.05205,
    "lng": 121.50818,
    "capacity": 48,
    "availableRentBikes": 4,
    "availableReturnBikes": 44,
    "pressure": 0.893,
    "updatedAt": "2026-05-21 16:30:53"
  },
  {
    "id": "youbike-500103040",
    "source": "YouBike2.0臺北市公共自行車即時資訊",
    "type": "youbike",
    "district": "大同區",
    "name": "蔣渭水紀念公園",
    "address": "錦西街/興城街口(西南側)",
    "lat": 25.06011,
    "lng": 121.51729,
    "capacity": 47,
    "availableRentBikes": 16,
    "availableReturnBikes": 31,
    "pressure": 0.564,
    "updatedAt": "2026-05-21 16:30:53"
  },
  {
    "id": "youbike-500103041",
    "source": "YouBike2.0臺北市公共自行車即時資訊",
    "type": "youbike",
    "district": "大同區",
    "name": "迪化休閒運動公園",
    "address": "延平北路四段200號(南側)",
    "lat": 25.07491,
    "lng": 121.5115,
    "capacity": 31,
    "availableRentBikes": 7,
    "availableReturnBikes": 23,
    "pressure": 0.702,
    "updatedAt": "2026-05-21 16:30:53"
  },
  {
    "id": "youbike-500103042",
    "source": "YouBike2.0臺北市公共自行車即時資訊",
    "type": "youbike",
    "district": "大同區",
    "name": "大同運動中心",
    "address": "大龍街51號(旁)",
    "lat": 25.06496,
    "lng": 121.51608,
    "capacity": 16,
    "availableRentBikes": 7,
    "availableReturnBikes": 9,
    "pressure": 0.44,
    "updatedAt": "2026-05-21 16:30:53"
  },
  {
    "id": "youbike-500103043",
    "source": "YouBike2.0臺北市公共自行車即時資訊",
    "type": "youbike",
    "district": "大同區",
    "name": "重慶保安街口(家樂福重慶店)",
    "address": "重慶北路二段171號(旁)",
    "lat": 25.05918,
    "lng": 121.51373,
    "capacity": 20,
    "availableRentBikes": 18,
    "availableReturnBikes": 2,
    "pressure": 0.296,
    "updatedAt": "2026-05-21 16:30:53"
  },
  {
    "id": "youbike-500103044",
    "source": "YouBike2.0臺北市公共自行車即時資訊",
    "type": "youbike",
    "district": "大同區",
    "name": "大稻埕碼頭",
    "address": "大稻埕疏散門(淡五號水門)外",
    "lat": 25.05662,
    "lng": 121.50783,
    "capacity": 52,
    "availableRentBikes": 22,
    "availableReturnBikes": 28,
    "pressure": 0.448,
    "updatedAt": "2026-05-21 16:30:53"
  },
  {
    "id": "youbike-500103045",
    "source": "YouBike2.0臺北市公共自行車即時資訊",
    "type": "youbike",
    "district": "大同區",
    "name": "歸綏戲曲公園",
    "address": "重慶北路二段/歸綏街口(南側)",
    "lat": 25.05805,
    "lng": 121.51353,
    "capacity": 25,
    "availableRentBikes": 14,
    "availableReturnBikes": 11,
    "pressure": 0.35,
    "updatedAt": "2026-05-21 16:30:53"
  },
  {
    "id": "youbike-500103046",
    "source": "YouBike2.0臺北市公共自行車即時資訊",
    "type": "youbike",
    "district": "大同區",
    "name": "民權國中(民權西路)",
    "address": "民權西路/蘭州街(西側)",
    "lat": 25.06322,
    "lng": 121.5144,
    "capacity": 25,
    "availableRentBikes": 3,
    "availableReturnBikes": 22,
    "pressure": 0.846,
    "updatedAt": "2026-05-21 16:30:53"
  },
  {
    "id": "youbike-500103047",
    "source": "YouBike2.0臺北市公共自行車即時資訊",
    "type": "youbike",
    "district": "大同區",
    "name": "承德民權路口",
    "address": "承德路二段239號前",
    "lat": 25.06247,
    "lng": 121.51839,
    "capacity": 36,
    "availableRentBikes": 5,
    "availableReturnBikes": 31,
    "pressure": 0.822,
    "updatedAt": "2026-05-21 16:30:53"
  },
  {
    "id": "youbike-500103048",
    "source": "YouBike2.0臺北市公共自行車即時資訊",
    "type": "youbike",
    "district": "大同區",
    "name": "南京太原路口",
    "address": "南京西路/太原路(東側)",
    "lat": 25.05366,
    "lng": 121.51638,
    "capacity": 29,
    "availableRentBikes": 14,
    "availableReturnBikes": 15,
    "pressure": 0.382,
    "updatedAt": "2026-05-21 16:30:53"
  },
  {
    "id": "youbike-500103049",
    "source": "YouBike2.0臺北市公共自行車即時資訊",
    "type": "youbike",
    "district": "大同區",
    "name": "承德民生西路口",
    "address": "承德路二段137號前",
    "lat": 25.05756,
    "lng": 121.51828,
    "capacity": 19,
    "availableRentBikes": 8,
    "availableReturnBikes": 10,
    "pressure": 0.446,
    "updatedAt": "2026-05-21 16:30:53"
  },
  {
    "id": "youbike-500103050",
    "source": "YouBike2.0臺北市公共自行車即時資訊",
    "type": "youbike",
    "district": "大同區",
    "name": "太原五原路口",
    "address": "太原路 / 五原路口(東南側)",
    "lat": 25.05646,
    "lng": 121.51698,
    "capacity": 39,
    "availableRentBikes": 9,
    "availableReturnBikes": 30,
    "pressure": 0.705,
    "updatedAt": "2026-05-21 16:30:53"
  },
  {
    "id": "youbike-500103051",
    "source": "YouBike2.0臺北市公共自行車即時資訊",
    "type": "youbike",
    "district": "大同區",
    "name": "臺北轉運站(華陰街)",
    "address": "華陰街45號(對面)",
    "lat": 25.04937,
    "lng": 121.51914,
    "capacity": 20,
    "availableRentBikes": 16,
    "availableReturnBikes": 3,
    "pressure": 0.326,
    "updatedAt": "2026-05-21 16:30:53"
  },
  {
    "id": "youbike-500103052",
    "source": "YouBike2.0臺北市公共自行車即時資訊",
    "type": "youbike",
    "district": "大同區",
    "name": "捷運民權西路站(3號出口)",
    "address": "民權西路70巷37號對面",
    "lat": 25.06129,
    "lng": 121.52021,
    "capacity": 50,
    "availableRentBikes": 14,
    "availableReturnBikes": 36,
    "pressure": 0.642,
    "updatedAt": "2026-05-21 16:30:53"
  },
  {
    "id": "youbike-500103053",
    "source": "YouBike2.0臺北市公共自行車即時資訊",
    "type": "youbike",
    "district": "大同區",
    "name": "捷運中山站(5號出口)",
    "address": "南京西路57號前",
    "lat": 25.05296,
    "lng": 121.51938,
    "capacity": 18,
    "availableRentBikes": 10,
    "availableReturnBikes": 8,
    "pressure": 0.351,
    "updatedAt": "2026-05-21 16:30:53"
  },
  {
    "id": "youbike-500103054",
    "source": "YouBike2.0臺北市公共自行車即時資訊",
    "type": "youbike",
    "district": "大同區",
    "name": "重慶長安路口",
    "address": "長安西路244號(重慶路側)",
    "lat": 25.0515,
    "lng": 121.51398,
    "capacity": 21,
    "availableRentBikes": 3,
    "availableReturnBikes": 18,
    "pressure": 0.817,
    "updatedAt": "2026-05-21 16:30:53"
  },
  {
    "id": "youbike-500103055",
    "source": "YouBike2.0臺北市公共自行車即時資訊",
    "type": "youbike",
    "district": "大同區",
    "name": "承德昌吉街口",
    "address": "承德路三段83號前",
    "lat": 25.06587,
    "lng": 121.51847,
    "capacity": 18,
    "availableRentBikes": 10,
    "availableReturnBikes": 8,
    "pressure": 0.351,
    "updatedAt": "2026-05-21 16:30:53"
  },
  {
    "id": "youbike-500103056",
    "source": "YouBike2.0臺北市公共自行車即時資訊",
    "type": "youbike",
    "district": "大同區",
    "name": "大同16號廣場",
    "address": "環河北路一段/民生西路口(東南側)",
    "lat": 25.05658,
    "lng": 121.50826,
    "capacity": 14,
    "availableRentBikes": 10,
    "availableReturnBikes": 3,
    "pressure": 0.346,
    "updatedAt": "2026-05-21 16:30:53"
  },
  {
    "id": "youbike-500103057",
    "source": "YouBike2.0臺北市公共自行車即時資訊",
    "type": "youbike",
    "district": "大同區",
    "name": "捷運圓山站(2號出口)",
    "address": "承德路三段/庫倫街(東南側)",
    "lat": 25.07182,
    "lng": 121.51929,
    "capacity": 36,
    "availableRentBikes": 31,
    "availableReturnBikes": 5,
    "pressure": 0.302,
    "updatedAt": "2026-05-21 16:30:53"
  },
  {
    "id": "youbike-500103058",
    "source": "YouBike2.0臺北市公共自行車即時資訊",
    "type": "youbike",
    "district": "大同區",
    "name": "樹德公園_1",
    "address": "大龍街/大龍街85巷(東北側)",
    "lat": 25.06669,
    "lng": 121.51615,
    "capacity": 40,
    "availableRentBikes": 20,
    "availableReturnBikes": 20,
    "pressure": 0.36,
    "updatedAt": "2026-05-21 16:30:53"
  },
  {
    "id": "youbike-500103059",
    "source": "YouBike2.0臺北市公共自行車即時資訊",
    "type": "youbike",
    "district": "大同區",
    "name": "承德鄭州路口(市民高架下)",
    "address": "承德路一段/鄭州路口(市民高架下)",
    "lat": 25.04879,
    "lng": 121.51626,
    "capacity": 38,
    "availableRentBikes": 26,
    "availableReturnBikes": 12,
    "pressure": 0.331,
    "updatedAt": "2026-05-21 16:30:53"
  },
  {
    "id": "youbike-500103060",
    "source": "YouBike2.0臺北市公共自行車即時資訊",
    "type": "youbike",
    "district": "大同區",
    "name": "成淵高中",
    "address": "錦西街與錦西街52巷口東北側",
    "lat": 25.06036,
    "lng": 121.51996,
    "capacity": 25,
    "availableRentBikes": 10,
    "availableReturnBikes": 14,
    "pressure": 0.477,
    "updatedAt": "2026-05-21 16:30:53"
  },
  {
    "id": "youbike-500103061",
    "source": "YouBike2.0臺北市公共自行車即時資訊",
    "type": "youbike",
    "district": "大同區",
    "name": "雙蓮國小",
    "address": "民權西路102巷4弄25號對側人行道",
    "lat": 25.06157,
    "lng": 121.51683,
    "capacity": 20,
    "availableRentBikes": 1,
    "availableReturnBikes": 19,
    "pressure": 0.936,
    "updatedAt": "2026-05-21 16:30:53"
  },
  {
    "id": "youbike-500103062",
    "source": "YouBike2.0臺北市公共自行車即時資訊",
    "type": "youbike",
    "district": "大同區",
    "name": "寧夏涼州街口",
    "address": "寧夏路141號對側",
    "lat": 25.06095,
    "lng": 121.51428,
    "capacity": 15,
    "availableRentBikes": 4,
    "availableReturnBikes": 11,
    "pressure": 0.659,
    "updatedAt": "2026-05-21 16:30:53"
  },
  {
    "id": "youbike-500103063",
    "source": "YouBike2.0臺北市公共自行車即時資訊",
    "type": "youbike",
    "district": "大同區",
    "name": "延平涼州街口",
    "address": "延平北路二段/涼州街口(行人天橋下)",
    "lat": 25.06092,
    "lng": 121.51126,
    "capacity": 14,
    "availableRentBikes": 6,
    "availableReturnBikes": 8,
    "pressure": 0.451,
    "updatedAt": "2026-05-21 16:30:53"
  },
  {
    "id": "youbike-500103064",
    "source": "YouBike2.0臺北市公共自行車即時資訊",
    "type": "youbike",
    "district": "大同區",
    "name": "大同行政中心",
    "address": "昌吉街63號旁",
    "lat": 25.06603,
    "lng": 121.51481,
    "capacity": 16,
    "availableRentBikes": 6,
    "availableReturnBikes": 10,
    "pressure": 0.52,
    "updatedAt": "2026-05-21 16:30:53"
  },
  {
    "id": "youbike-500103065",
    "source": "YouBike2.0臺北市公共自行車即時資訊",
    "type": "youbike",
    "district": "大同區",
    "name": "大龍市場",
    "address": "重慶北路三段335巷13號對面",
    "lat": 25.07473,
    "lng": 121.51451,
    "capacity": 15,
    "availableRentBikes": 8,
    "availableReturnBikes": 7,
    "pressure": 0.355,
    "updatedAt": "2026-05-21 16:30:53"
  },
  {
    "id": "youbike-500103066",
    "source": "YouBike2.0臺北市公共自行車即時資訊",
    "type": "youbike",
    "district": "大同區",
    "name": "南京西寧北路口(西北側)",
    "address": "南京西路/西寧北路(西北側)",
    "lat": 25.05348,
    "lng": 121.50855,
    "capacity": 13,
    "availableRentBikes": 12,
    "availableReturnBikes": 1,
    "pressure": 0.292,
    "updatedAt": "2026-05-21 16:30:53"
  },
  {
    "id": "youbike-500103068",
    "source": "YouBike2.0臺北市公共自行車即時資訊",
    "type": "youbike",
    "district": "大同區",
    "name": "哈密街23巷19弄口",
    "address": "敦煌路78號",
    "lat": 25.07563,
    "lng": 121.51815,
    "capacity": 23,
    "availableRentBikes": 3,
    "availableReturnBikes": 20,
    "pressure": 0.833,
    "updatedAt": "2026-05-21 16:30:53"
  },